code_uic;ville;villegare;region;departement;lat;lng
87988717;Lycée Henri Sellier;LIVRY GARGAN GARE LYCEE HENRI SELLIER TR;REGION DE PARIS-EST;Seine-Saint-Denis;48.91646;2.51504
87784876;Bourg-Madame;BOURG MADAME GARE;REGION LANGUEDOC-ROUSSILLON;Pyrénées-Orientales;42.4324069;1.9486704
87784819;Font-Romeu-Odeillo-Via;FONT ROMEU ODEILLO VIA GARE;REGION LANGUEDOC-ROUSSILLON;Pyrénées-Orientales;42.4912317;2.0383917
87784751;Thuès Carença;;REGION LANGUEDOC-ROUSSILLON;Pyrénées-Orientales;42.5229486;2.2227279
87784686;Villefranche - Vernet-les-Bains;VILLEFRANCHE VERNET LES BAINS GARE;REGION LANGUEDOC-ROUSSILLON;Pyrénées-Orientales;42.591998;2.370396
87784546;Millas;MILLAS GARE;REGION LANGUEDOC-ROUSSILLON;Pyrénées-Orientales;42.6888961;2.6937502
87784264;Port-Vendres;PORT VENDRES VILLE GARE;REGION LANGUEDOC-ROUSSILLON;Pyrénées-Orientales;42.5136077;3.1025762
87783670;Belvezet;BELVEZET GARE;REGION LANGUEDOC-ROUSSILLON;Lozère;44.5617971;3.7518919
87783654;Allenc;ALLENC GARE;REGION LANGUEDOC-ROUSSILLON;Lozère;44.541296;3.6638926
87783647;Bagnols - Chadenet;BAGNOLS CHADENET EX GARE;REGION LANGUEDOC-ROUSSILLON;Lozère;44.5286125;3.628178
87783423;Saint-Georges-de-Luzençon;SAINT GEORGES DE LUZENCON GARE;REGION LANGUEDOC-ROUSSILLON;Aveyron;44.066553;2.983784
87783282;Marvejols;MARVEJOLS GARE;REGION LANGUEDOC-ROUSSILLON;Lozère;44.5446819;3.2810718
87781542;Ceilhes - Roqueredonde;CEILHES ROQUEREDONDE EX GARE;REGION LANGUEDOC-ROUSSILLON;Hérault;43.8122656;3.1551583
87781534;Montpaon;MONTPAON GARE;REGION LANGUEDOC-ROUSSILLON;Aveyron;43.8685236;3.1097221
87781062;Port-la-Nouvelle;PORT LA NOUVELLE GARE;REGION LANGUEDOC-ROUSSILLON;Aude;43.0199342;3.0388188
87775817;Vauvert;VAUVERT GARE;REGION LANGUEDOC-ROUSSILLON;Gard;43.6950375;4.270165
87775528;Molières-sur-Cèze;;;Gard;;
87775346;Boucoiran-et-Nozières;BOUCOIRAN GARE;REGION LANGUEDOC-ROUSSILLON;Gard;43.9926943;4.187634
87775197;Villefort;VILLEFORT GARE;REGION LANGUEDOC-ROUSSILLON;Lozère;44.4395099;3.9240146
87773531;Vic - Mireval;VIC MIREVAL GARE;REGION LANGUEDOC-ROUSSILLON;Hérault;43.5007687;3.7994505
87773465;Saint-Aunès;SAINT AUNES GARE;REGION LANGUEDOC-ROUSSILLON;Hérault;43.6354383;3.9628994
87773002;Montpellier Saint-Roch;MONTPELLIER GARE;REGION LANGUEDOC-ROUSSILLON;Hérault;43.604738;3.880674
87765198;Bédarrides;BEDARRIDES GARE;REGION PROVENCE ALPES COTE D'AZUR;Vaucluse;44.0407636;4.8931321
87763755;Laragne-Montéglin;LARAGNE GARE;REGION PROVENCE ALPES COTE D'AZUR;Hautes-Alpes;44.3164984;5.8189832
87763557;L'Argentière Les Écrins;L ARGENTIERE LA BESSEE GARE;REGION PROVENCE ALPES COTE D'AZUR;Hautes-Alpes;44.7909802;6.5564162
87763508;Mont-Dauphin - Guillestre;MONTDAUPHIN GUILLESTRE GARE;REGION PROVENCE ALPES COTE D'AZUR;Hautes-Alpes;44.6746283;6.6156027
87763466;Embrun;EMBRUN GARE;REGION PROVENCE ALPES COTE D'AZUR;Hautes-Alpes;44.567008;6.496773
87763425;Chorges;CHORGES GARE;REGION PROVENCE ALPES COTE D'AZUR;Hautes-Alpes;44.5458415;6.2718887
87761262;Loriol-sur-Drôme;LORIOL GARE;REGION RHONE-ALPES;Drôme;44.7544973;4.8171679
87757690;Biot;BIOT GARE;REGION PROVENCE ALPES COTE D'AZUR;Alpes-Maritimes;43.610951;7.126090
87757591;Mandelieu-la-Napoule;MANDELIEU LA NAPOULE GARE;REGION PROVENCE ALPES COTE D'AZUR;Alpes-Maritimes;43.523903;6.941313
87757542;Le Dramont;LE DRAMONT HALTE;REGION PROVENCE ALPES COTE D'AZUR;Var;43.4178193;6.8442467
87757534;Boulouris sur Mer;BOULOURIS SUR MER GARE;REGION PROVENCE ALPES COTE D'AZUR;Var;43.4163471;6.8082519
87756882;Tende;TENDE GARE;REGION PROVENCE ALPES COTE D'AZUR;Alpes-Maritimes;44.089922;7.5941608
87756874;La Brigue;LA BRIGUE GARE;REGION PROVENCE ALPES COTE D'AZUR;Alpes-Maritimes;44.0625669;7.6056235
87756866;Saint-Dalmas de Tende;SAINT DALMAS DE TENDE P GARE;REGION PROVENCE ALPES COTE D'AZUR;Alpes-Maritimes;44.05582;7.5834505
87756775;Drap - Cantaron;DRAP CANTARON P GARE;REGION PROVENCE ALPES COTE D'AZUR;Alpes-Maritimes;43.7599599;7.3168739
87756353;Nice Riquier;NICE RIQUIER GARE;REGION PROVENCE ALPES COTE D'AZUR;Alpes-Maritimes;43.705554;7.290175
87756007;Nice Saint Roch;;;Alpes-Maritimes;43.715342;7.286869
87755397;Gonfaron;GONFARON GARE;REGION PROVENCE ALPES COTE D'AZUR;Var;43.3171516;6.2817644
87755371;Carnoules;CARNOULES GARE;REGION PROVENCE ALPES COTE D'AZUR;Var;43.2974104;6.1862531
87755355;Cuers - Pierrefeu;CUERS PIERREFEU GARE;REGION PROVENCE ALPES COTE D'AZUR;Var;43.2364281;6.0856855
87755314;La Pauline Hyères;LA PAULINE HYERES GARE;REGION PROVENCE ALPES COTE D'AZUR;Var;43.1364769;6.0351027
87753582;Niolon;NIOLON GARE;REGION PROVENCE ALPES COTE D'AZUR;Bouches-du-Rhône;43.340223;5.2569415
87753574;La Redonne Ensuès;LA REDONNE ENSUES P GARE;REGION PROVENCE ALPES COTE D'AZUR;Bouches-du-Rhône;43.33447;5.1975675
87753426;Rassuen;RASSUEN GARE;REGION PROVENCE ALPES COTE D'AZUR;Bouches-du-Rhône;43.4966716;4.9731266
87753418;Istres;ISTRES GARE;REGION PROVENCE ALPES COTE D'AZUR;Bouches-du-Rhône;43.5153953;4.9804272
87751776;Cassis;CASSIS GARE;REGION PROVENCE ALPES COTE D'AZUR;Bouches-du-Rhône;43.234060;5.553055
87751362;Pertuis;;;Vaucluse;43.6845547;5.5037023
87751271;La Brillanne - Oraison;LA BRILLANNE ORAISON GARE;REGION PROVENCE ALPES COTE D'AZUR;Alpes-de-Haute-Provence;43.9247771;5.8923199
87751230;Château-Arnoux-Saint-Auban;SAINT AUBAN GARE;REGION PROVENCE ALPES COTE D'AZUR;Alpes-de-Haute-Provence;44.0615651;5.9973734
87747576;Vif;VIF GARE;REGION ALPES;Isère;45.0476532;5.6854542
87747329;Moirans;MOIRANS GARE;REGION ALPES;Isère;45.322185;5.581915
87747204;Virieu sur Bourbre;VIRIEU SUR BOURBRE GARE;REGION ALPES;;45.491703;5.4721424
87746883;Le Buet;LE BUET GARE;REGION ALPES;Haute-Savoie;46.018805;6.9204119
87746842;La Joux;LA JOUX (HTE SAVOIE) HALTE;REGION ALPES;Haute-Savoie;45.9657075;6.910179
87746776;Les Pélerins;LES PELERINS GARE;REGION ALPES;Haute-Savoie;45.9125671;6.8472858
87746719;Servoz;SERVOZ GARE;REGION ALPES;Haute-Savoie;45.9244592;6.763444
87746511;Reignier-Ésery;REIGNIER GARE;REGION ALPES;Haute-Savoie;46.1256159;6.2675466
87746438;Sallanches - Combloux - Megève;SALLANCHES COMBLOUX MEGEVE GARE;REGION ALPES;Haute-Savoie;45.935702;6.636431
87746412;Magland;MAGLAND GARE;REGION ALPES;Haute-Savoie;46.016945;6.6215075
87746313;Saint-Pierre-en-Faucigny;SAINT PIERRE EN FAUCIGNY GARE;REGION ALPES;Haute-Savoie;46.0593442;6.3757533
87746206;Pringy;PRINGY (HAUTE SAVOIE) GARE;REGION ALPES;Haute-Savoie;45.9395239;6.1232736
87746008;Annecy;ANNECY GARE;REGION ALPES;Haute-Savoie;45.901965;6.121835
87745620;Perrignier;PERRIGNIER GARE;REGION ALPES;Haute-Savoie;46.303259;6.4249208
87745414;Valleiry;VALLEIRY GARE;REGION ALPES;Haute-Savoie;46.1092875;5.96735
87743534;Oyonnax;OYONNAX GARE;REGION ALPES;Ain;46.259742;5.653338
87743344;Cize - Bolozon;CIZE BOLOZON GARE;REGION ALPES;Ain;46.2134803;5.4540677
87743146;Ambronay - Priay;AMBRONAY PRIAY GARE;REGION ALPES;Ain;46.0115941;5.3382579
87743120;Pont-d'Ain;PONT D AIN GARE;REGION ALPES;Ain;46.053961;5.3343285
87741694;Notre-Dame de Briançon;NOTRE DAME DE BRIANCON GARE;REGION ALPES;Savoie;45.5393185;6.4687785
87741629;Frontenex;FRONTENEX GARE;REGION ALPES;Savoie;45.6305461;6.3140556
87741454;Saint-Béron - La Bridoire;SAINT BERON LA BRIDOIRE GARE;REGION ALPES;Savoie;45.5038935;5.7319345
87741439;Lépin-le-Lac - La Bauche;LEPIN LE LAC LA BAUCHE GARE;REGION ALPES;Savoie;45.541519;5.7649834
87741280;Épierre - Saint-Léger;EPIERRE GARE;REGION ALPES;Savoie;45.457027;6.292521
87741256;Aiguebelle;AIGUEBELLE GARE;REGION ALPES;;45.5437225;6.3067175
87741181;Montmélian;MONTMELIAN GARE;REGION ALPES;Savoie;45.503059;6.043289
87734699;Le Puy-en-Velay;LE PUY GARE;REGION AUVERGNE;Haute-Loire;45.042866;3.892421
87734319;Langeac;LANGEAC GARE;REGION AUVERGNE;Haute-Loire;45.10125;3.490672
87734301;Saint-Georges-d'Aurac;SAINT GEORGES D AURAC GARE;REGION AUVERGNE;Haute-Loire;45.1605341;3.4947035
87734186;Vic-le-Comte;VIC LE COMTE GARE;REGION AUVERGNE;Puy-de-Dôme;45.664911;3.207079
87734178;Les Martres-de-Veyre;LES MARTRES DE VEYRE GARE;REGION AUVERGNE;Puy-de-Dôme;45.688155;3.193228
87734152;Sarliève - Cournon;SARLIEVE COURNON GARE;REGION AUVERGNE;Puy-de-Dôme;45.7387697;3.1681196
87734129;Aigueperse;AIGUEPERSE GARE;REGION AUVERGNE;Puy-de-Dôme;46.0147884;3.1982621
87734111;Aubiat;AUBIAT GARE;REGION AUVERGNE;Puy-de-Dôme;45.983812;3.1605115
87734046;Gerzat;GERZAT GARE;REGION AUVERGNE;Puy-de-Dôme;45.8335879;3.1431045
87734038;Royat - Chamalières;ROYAT CHAMALIERES GARE;REGION AUVERGNE;Puy-de-Dôme;45.7676495;3.0615022
87728501;Saint-Fons;SAINT FONS GARE;REGION RHONE-ALPES;Rhône;45.7058114;4.8525663
87726885;Montrond-les-Bains;MONTROND LES BAINS P GARE;REGION RHONE-ALPES;Loire;45.644429;4.248814
87726877;Feurs;FEURS GARE;REGION RHONE-ALPES;Loire;45.744156;4.230573
87726794;Beauzac;;;;;
87726430;Saint-Romain-le-Puy;SAINT ROMAIN LE PUY GARE;REGION RHONE-ALPES;Loire;45.5545543;4.1208275
87726406;Andrézieux-Bouthéon;ANDREZIEUX GARE;REGION RHONE-ALPES;Loire;45.5217037;4.254834
87726216;Bouthéon;BOUTHEON GARE;REGION RHONE-ALPES;Loire;45.5246289;4.2777187
87726190;Saint-Étienne Bellevue;SAINT ETIENNE BELLEVUE GARE;REGION RHONE-ALPES;Loire;45.417128;4.392734
87726158;Saint-Étienne La Terrasse;SAINT ETIENNE LA TERRASSE GARE;REGION RHONE-ALPES;Loire;45.464843;4.379601
87726000;Saint-Étienne Châteaucreux;SAINT ETIENNE CHATEAUCREUX GARE;REGION RHONE-ALPES;Loire;45.443366;4.399722
87725838;Mézériat;MEZERIAT GARE;REGION ALPES;Ain;46.2350502;5.046622
87725804;Pont-de-Veyle;PONT DE VEYLE GARE;REGION ALPES;Ain;46.2679114;4.8930347
87725622;Tournus;TOURNUS GARE;REGION BOURGOGNE FRANCHE-COMTE;Saône-et-Loire;46.566680;4.906647
87723551;La Boisse;;;;;
87723536;Saint-Maurice-de-Beynost;SAINT MAURICE DE BEYNOST GARE;REGION RHONE-ALPES;Ain;45.827421;4.976986
87723502;Crépieux la Pape;CREPIEUX LA PAPE HALTE;REGION RHONE-ALPES;Rhône;45.8038348;4.8922918
87723353;Saint-Priest;SAINT PRIEST GARE;REGION RHONE-ALPES;Rhône;45.686659;4.934242
87723320;Vénissieux;VENISSIEUX GARE VOYAGEURS;REGION RHONE-ALPES;Rhône;45.705551;4.888109
87722744;Alaï;;REGION RHONE-ALPES;Rhône;45.7521198;4.7717824
87722702;Francheville;FRANCHEVILLE GARE;REGION RHONE-ALPES;Rhône;45.7336473;4.7693729
87722678;Le Péage-de-Roussillon;LE PEAGE DE ROUSSILLON GARE;REGION RHONE-ALPES;Isère;45.371797;4.795402
87722561;Chasse-sur-Rhône;CHASSE SUR RHONE GARE;REGION RHONE-ALPES;Isère;45.582370;4.794843
87722439;Givors Canal;GIVORS CANAL GARE;REGION RHONE-ALPES;Rhône;45.5957662;4.7725754
87721894;Poule;;;;;
87721811;Ternand;;;;;
87721449;Dardilly Le Jubin;DARDILLY GARE;REGION RHONE-ALPES;Rhône;45.815143;4.7613451
87721340;Saint-Georges-de-Reneins;SAINT GEORGES DE RENEINS GARE;REGION RHONE-ALPES;Rhône;46.0621952;4.7188908
87721241;Couzon-au-Mont-d'Or;COUZON AU MONT D OR GARE;REGION RHONE-ALPES;Rhône;45.8486737;4.8294786
87721050;Régny;REGNY GARE;REGION RHONE-ALPES;Loire;45.987705;4.2150753
87721043;Saint-Victor - Thizy;SAINT VICTOR THIZY GARE;REGION RHONE-ALPES;Loire;46.0024781;4.2810245
87718833;Mouchard;MOUCHARD GARE;REGION BOURGOGNE FRANCHE-COMTE;Jura;46.976911;5.799644
87718577;Gilley;GILLEY GARE;REGION BOURGOGNE FRANCHE-COMTE;Doubs;47.0500626;6.4925676
87718460;Baume-les-Dames;BAUME LES DAMES GARE;REGION BOURGOGNE FRANCHE-COMTE;Doubs;47.353937;6.359603
87718361;Orchamps;ORCHAMPS (JURA) GARE;REGION BOURGOGNE FRANCHE-COMTE;Jura;47.1500962;5.659147
87718155;Arbois;ARBOIS GARE;REGION BOURGOGNE FRANCHE-COMTE;Jura;46.912509;5.7648273
87715326;Champagnole;CHAMPAGNOLE GARE;REGION BOURGOGNE FRANCHE-COMTE;Jura;46.7492981;5.9100314
87715136;Frasne;FRASNE GARE;REGION BOURGOGNE FRANCHE-COMTE;Doubs;46.857596;6.157767
87713842;Gemeaux;GEMEAUX GARE;REGION BOURGOGNE FRANCHE-COMTE;Côte-d'Or;47.478542;5.1293074
87713701;Mervans;MERVANS GARE;REGION BOURGOGNE FRANCHE-COMTE;Saône-et-Loire;46.7988928;5.1794099
87713578;Chagny;CHAGNY GARE;REGION BOURGOGNE FRANCHE-COMTE;Saône-et-Loire;46.907269;4.749682
87713545;Beaune;BEAUNE GARE;REGION BOURGOGNE FRANCHE-COMTE;Côte-d'Or;47.023053;4.848379
87713412;Dole;DOLE VILLE GARE;REGION BOURGOGNE FRANCHE-COMTE;Jura;47.096084;5.488105
87713347;Auxonne;AUXONNE P GARE;REGION BOURGOGNE FRANCHE-COMTE;Côte-d'Or;47.192663;5.377370
87713115;Les Laumes Alésia;LES LAUMES ALESIA P GARE;REGION BOURGOGNE FRANCHE-COMTE;Côte-d'Or;47.543054;4.462602
87713099;Thenissey;THENISSEY GARE;REGION BOURGOGNE FRANCHE-COMTE;Côte-d'Or;47.4947945;4.6221929
87712026;Rully;RULLY GARE;REGION BOURGOGNE FRANCHE-COMTE;Saône-et-Loire;46.8804303;4.761033
87696419;Thiel-sur-Acolin;;;Allier;;
87696351;Varennes-sur-Allier;VARENNES SUR ALLIER GARE;REGION AUVERGNE;Allier;46.3154922;3.3941783
87696336;Bessay-sur-Allier;BESSAY GARE;REGION AUVERGNE;Allier;46.4435849;3.3606477
87696187;Mesves - Bulcy;MESVES BULCY GARE;REGION AUVERGNE;Nièvre;47.2420755;3.0065175
87696161;Tracy - Sancerre;TRACY SANCERRE GARE;REGION AUVERGNE;Nièvre;47.3376398;2.8804164
87694695;Digoin;DIGOIN GARE;REGION BOURGOGNE FRANCHE-COMTE;Saône-et-Loire;46.4851604;3.9876537
87694687;Paray-le-Monial;PARAY LE MONIAL GARE;REGION BOURGOGNE FRANCHE-COMTE;Saône-et-Loire;46.447312;4.113744
87694521;Manlay;;;Côte-d'Or;;
87694471;Saulieu;;;Côte-d'Or;;
87694398;Cheilly-lès-Maranges;CHEILLY LES MARANGES GARE;REGION BOURGOGNE FRANCHE-COMTE;Saône-et-Loire;46.8924768;4.6758424
87683664;Vermenton;VERMENTON GARE;REGION DE PARIS-SUD-EST;Yonne;47.6605943;3.7320212
87683631;Vincelles;;;Yonne;47.7042304;3.6284728
87683573;Auxerre Saint-Gervais;AUXERRE ST GERVAIS GARE;REGION DE PARIS-SUD-EST;Yonne;47.797645;3.585140
87683532;Chemilly - Appoigny;CHEMILLY APPOIGNY GARE;REGION DE PARIS-SUD-EST;Yonne;47.8972366;3.5543936
87683268;Laroche - Migennes;LAROCHE MIGENNES GARE;REGION DE PARIS-SUD-EST;Yonne;47.960998;3.513191
87683227;Saint-Julien-du-Sault;SAINT JULIEN DU SAULT P GARE;REGION DE PARIS-SUD-EST;Yonne;48.0269195;3.302688
87682526;Ponthierry - Pringy;PONTHIERRY PRINGY GARE;REGION DE PARIS-SUD-EST;Seine-et-Marne;48.534933;2.544590
87682468;Vernou-la-Celle-sur-Seine;VERNOU SUR SEINE GARE;REGION DE PARIS-SUD-EST;Seine-et-Marne;48.3864547;2.8424649
87682294;Saint-Mammès;SAINT MAMMES GARE;REGION DE PARIS-SUD-EST;Seine-et-Marne;48.382171;2.815930
87682112;Yerres;YERRES GARE;REGION DE PARIS-SUD-EST;Essonne;48.706759;2.483370
87682005;Melun;MELUN P GARE;REGION DE PARIS-SUD-EST;Seine-et-Marne;48.527662;2.655404
87681635;Le Coudray-Montceaux;COUDRAY MONTCEAUX GARE;REGION DE PARIS-SUD-EST;Essonne;48.5661679;2.4924649
87681437;Ballancourt-sur-Essonne;BALLANCOURT GARE;REGION DE PARIS-SUD-EST;Essonne;48.532114;2.371274
87681379;Grigny Centre;GRIGNY CENTRE GARE;REGION DE PARIS-SUD-EST;Essonne;48.653430;2.395797
87681361;Évry Val de Seine;EVRY GARE;REGION DE PARIS-SUD-EST;Essonne;48.63442;2.45209
87681007;Corbeil-Essonnes;CORBEIL ESSONNES GARE;REGION DE PARIS-SUD-EST;Essonne;48.61403;2.47401
87673707;Ossès - Saint-Martin-d'Arrossa;OSSES ST MARTIN D ARROSSA GARE;REGION POITOU-CHARENTES AQUITAINE;Pyrénées-Atlantiques;43.2352119;-1.3048922
87673251;Saubusse;SAUBUSSE LES BAINS GARE;REGION POITOU-CHARENTES AQUITAINE;Landes;43.6603331;-1.1901703
87673095;Boucau;LE BOUCAU GARE;REGION POITOU-CHARENTES AQUITAINE;Pyrénées-Atlantiques;43.5234217;-1.4905872
87673004;Bayonne;BAYONNE GARE;REGION POITOU-CHARENTES AQUITAINE;Pyrénées-Atlantiques;43.496801;-1.470306
87672634;Buzy en Béarn;BUZY EN BEARN GARE;REGION POITOU-CHARENTES AQUITAINE;Pyrénées-Atlantiques;43.1482723;-0.4558864
87672337;Peyrehorade;PEYREHORADE GARE;REGION POITOU-CHARENTES AQUITAINE;Landes;43.5468102;-1.1157577
87672253;Orthez;ORTHEZ GARE;REGION POITOU-CHARENTES AQUITAINE;Pyrénées-Atlantiques;43.484242;-0.76776
87672006;Pau;PAU P GARE;REGION POITOU-CHARENTES AQUITAINE;Pyrénées-Atlantiques;43.291762;-0.369626
87671479;Arengosse;ARENGOSSE GARE;REGION POITOU-CHARENTES AQUITAINE;Landes;44.0069764;-0.8093835
87645440;Vic-sur-Cère;VIC SUR CERE GARE;REGION AUVERGNE;Cantal;44.975877;2.6316644
87645101;Ytrac;YTRAC GARE;REGION AUVERGNE;Cantal;44.9106891;2.3644474
87645002;Aurillac;AURILLAC GARE;REGION AUVERGNE;Cantal;44.921092;2.435655
87641464;La Bourboule;;;Puy-de-Dôme;45.5906298;2.7462611
87641217;Huriel;HURIEL GARE;REGION AUVERGNE;Allier;46.3714332;2.4762569
87641191;La Ville Gozet;LA VILLE GOZET GARE;REGION AUVERGNE;Allier;46.3497686;2.5918028
87641134;St-Gervais-Chateauneuf;;;;;
87618207;Montlaur;MONTLAUR GARE;REGION MIDI PYRENEES;Haute-Garonne;43.4752405;1.5776454
87616011;Avignonet-Lauragais;AVIGNONET (HAUTE GARONNE) GARE;REGION MIDI PYRENEES;Haute-Garonne;43.3638769;1.7872687
87615419;Marssac-sur-Tarn;MARSSAC SUR TARN GARE;REGION MIDI PYRENEES;Tarn;43.9151803;2.026913
87615229;Campagne-sur-Aude;;;Aude;42.9169668;2.2056265
87615120;Couffoulens - Leuc;COUFFOULENS LEUC GARE;REGION LANGUEDOC-ROUSSILLON;Aude;43.1555365;2.3161754
87613398;Albias;ALBIAS GARE;REGION MIDI PYRENEES;Tarn-et-Garonne;44.0919078;1.4448012
87613224;Aubin;AUBIN GARE;REGION MIDI PYRENEES;Aveyron;44.5272762;2.2393128
87613174;Dégagnac;DEGAGNAC GARE;REGION MIDI PYRENEES;Lot;44.6534974;1.3400861
87613091;Figeac;FIGEAC GARE;REGION MIDI PYRENEES;Lot;44.603515;2.037355
87613075;Assier;ASSIER GARE;REGION MIDI PYRENEES;Lot;44.6746197;1.8697681
87611871;Malause;MALAUSE GARE;REGION MIDI PYRENEES;Tarn-et-Garonne;44.0882672;0.9716854
87611814;Mérenvielle;MERENVIELLE GARE;REGION MIDI PYRENEES;Haute-Garonne;43.6365051;1.1503303
87611806;L'Isle-Jourdain;L ISLE JOURDAIN (GERS) GARE;REGION MIDI PYRENEES;Gers;43.617185;1.089829
87611681;Dieupentale;DIEUPENTALE GARE;REGION MIDI PYRENEES;Tarn-et-Garonne;43.8654687;1.2760011
87611657;Saint-Jory;SAINT JORY GARE;REGION MIDI PYRENEES;Haute-Garonne;43.738375;1.371619
87611624;Saint-Jean-de-Verges;;REGION MIDI PYRENEES;Ariège;43.0128587;1.608059
87611616;Foix;FOIX GARE;REGION MIDI PYRENEES;Ariège;42.969746;1.607147
87611533;Ax-les-Thermes;AX LES THERMES GARE;REGION MIDI PYRENEES;Ariège;42.7247967;1.8332516
87611509;Porté-Puymorens;PORTE PUYMORENS GARE;REGION MIDI PYRENEES;Pyrénées-Orientales;42.539136;1.8248462
87611459;La Ville-Dieu-du-Temple;LAVILLEDIEU GARE;REGION MIDI PYRENEES;Tarn-et-Garonne;44.0355186;1.2149646
87611327;Varilhes;VARILHES GARE;REGION MIDI PYRENEES;Ariège;43.0415593;1.6284818
87611244;Montauban Ville Bourbon;MONTAUBAN VILLE BOURBON GARE;REGION MIDI PYRENEES;Tarn-et-Garonne;44.014387;1.341496
87611194;Marignac - Saint-Béat;;;Haute-Garonne;42.9155675;0.651998
87611152;Montréjeau - Gourdan-Polignan;MONTREJEAU GOURDAN POLIGNAN GARE;REGION MIDI PYRENEES;Haute-Garonne;43.078109;0.573500
87611095;Boussens;BOUSSENS GARE;REGION MIDI PYRENEES;Haute-Garonne;43.179617;0.972543
87611087;Martres-Tolosane;MARTRES TOLOSANE GARE;REGION MIDI PYRENEES;Haute-Garonne;43.1962069;1.0167558
87597823;Aubusson;AUBUSSON GARE;REGION LIMOUSIN;Creuse;45.9596691;2.1617231
87597724;Parsac - Gouzon;PARSAC GOUZON GARE;REGION LIMOUSIN;Creuse;46.1986154;2.1744416
87597096;Luant;LUANT GARE;REGION LIMOUSIN;Indre;46.7357683;1.5901964
87595827;Sarlat-la-Canéda;SARLAT GARE;REGION POITOU-CHARENTES AQUITAINE;Dordogne;44.8770213;1.220328
87595777;Saint-Cyprien;SAINT CYPRIEN GARE;REGION POITOU-CHARENTES AQUITAINE;Dordogne;44.8632733;1.0434666
87595728;Mauzens-et-Miremont;MAUZENS MIREMONT GARE;REGION POITOU-CHARENTES AQUITAINE;Dordogne;44.9768912;0.9571897
87595553;Limeyrat;LIMEYRAT GARE;REGION POITOU-CHARENTES AQUITAINE;Dordogne;45.1562615;0.9776842
87595538;Milhac-d'Auberoche;MILHAC D AUBEROCHE GARE;REGION POITOU-CHARENTES AQUITAINE;Dordogne;45.1290571;0.9180406
87595512;Niversac;NIVERSAC GARE;REGION POITOU-CHARENTES AQUITAINE;Dordogne;45.1383083;0.8082195
87595322;Montpon-Ménestérol;MONTPON SUR L ISLE GARE;REGION POITOU-CHARENTES AQUITAINE;Dordogne;45.006326;0.159328
87595280;Douzillac;DOUZILLAC GARE;REGION POITOU-CHARENTES AQUITAINE;Dordogne;45.0794691;0.4173893
87595215;La Cave;LA CAVE GARE;REGION POITOU-CHARENTES AQUITAINE;Dordogne;45.1839595;0.628305
87594671;Lubersac;;;Corrèze;45.4446152;1.3888289
87594622;Saint-Aulaire;SAINT AULAIRE HALTE;REGION LIMOUSIN;Corrèze;45.2488414;1.3986965
87594382;Condat - Le Lardin;CONDAT LE LARDIN GARE;REGION POITOU-CHARENTES AQUITAINE;Dordogne;45.1267128;1.2267493
87594002;Brive-la-Gaillarde;BRIVE LA GAILLARDE GARE;REGION LIMOUSIN;Corrèze;45.152618;1.528655
87592717;Saillat - Chassenon;SAILLAT CHASSENON GARE;REGION LIMOUSIN;Haute-Vienne;45.8696297;0.8117415
87592709;Saint-Junien;SAINT JUNIEN GARE;REGION LIMOUSIN;Haute-Vienne;45.8813844;0.9004849
87592691;Saint-Brice-sur-Vienne;SAINT BRICE SUR VIENNE GARE;REGION LIMOUSIN;Haute-Vienne;45.8781476;0.9523481
87592410;Nieul;NIEUL (HAUTE VIENNE) GARE;REGION LIMOUSIN;Haute-Vienne;45.9273896;1.1723974
87592378;La Souterraine;LA SOUTERRAINE GARE;REGION LIMOUSIN;Creuse;46.239792;1.492151
87592360;Fromental;FROMENTAL GARE;REGION LIMOUSIN;Haute-Vienne;46.1715646;1.4324317
87592253;Pierre-Buffière;PIERRE BUFFIERE P GARE;REGION LIMOUSIN;Haute-Vienne;45.6995226;1.3472667
87592097;Saint-Denis-des-Murs;SAINT DENIS DES MURS GARE;REGION LIMOUSIN;Haute-Vienne;45.7889106;1.5514368
87592071;Saint-Léonard-de-Noblat;SAINT LEONARD DE NOBLAT GARE;REGION LIMOUSIN;Haute-Vienne;45.8320199;1.481686
87592063;Brignac;BRIGNAC GARE;REGION LIMOUSIN;Haute-Vienne;45.8635812;1.4406315
87592055;Saint-Priest-Taurion;SAINT PRIEST TAURION GARE;REGION LIMOUSIN;Haute-Vienne;45.8872383;1.4002297
87586651;Tonneins;TONNEINS GARE;REGION POITOU-CHARENTES AQUITAINE;Lot-et-Garonne;44.392796;0.314093
87586495;Sauveterre-la-Lémance;SAUVETERRE LA LEMANCE GARE;REGION POITOU-CHARENTES AQUITAINE;Lot-et-Garonne;44.5893893;1.0115419
87586479;Sainte-Bazeille;SAINTE BAZEILLE GARE;REGION POITOU-CHARENTES AQUITAINE;Lot-et-Garonne;44.5326935;0.0931269
87586438;Penne-d'Agenais;PENNE (LOT ET GARONNE) GARE;REGION POITOU-CHARENTES AQUITAINE;Lot-et-Garonne;44.3799858;0.8029779
87584730;Saint-Loubès;SAINT LOUBES GARE;REGION POITOU-CHARENTES AQUITAINE;Gironde;44.9224009;-0.4333056
87584722;Saint-Sulpice - Izon;SAINT SULPICE IZON GARE;REGION POITOU-CHARENTES AQUITAINE;Gironde;44.9142742;-0.392135
87584615;Saint-Seurin-sur-l'Isle;SAINT SEURIN SUR L ISLE GARE;REGION POITOU-CHARENTES AQUITAINE;Gironde;45.0114075;-0.0026606
87584532;Les Églisottes-et-Chalaures;LES EGLISOTTES GARE;REGION POITOU-CHARENTES AQUITAINE;Gironde;45.0942299;-0.0437576
87584466;Mauzac-et-Grand-Castang;MAUZAC GARE;REGION POITOU-CHARENTES AQUITAINE;Dordogne;44.8558291;0.7899658
87584193;Sainte-Foy-la-Grande;SAINTE FOY LA GRANDE P GARE;REGION POITOU-CHARENTES AQUITAINE;Gironde;44.836886;0.221519
87584136;Castillon-la-Bataille;CASTILLON GARE;REGION POITOU-CHARENTES AQUITAINE;Gironde;44.856999;-0.04066
87584102;Saint-Émilion;SAINT EMILION GARE;REGION POITOU-CHARENTES AQUITAINE;Gironde;44.8811665;-0.1592003
87582841;Caudrot;CAUDROT GARE;REGION POITOU-CHARENTES AQUITAINE;Gironde;44.5801152;-0.1452784
87582734;Podensac;PODENSAC GARE;REGION POITOU-CHARENTES AQUITAINE;Gironde;44.6489664;-0.3589057
87582700;Beautiran;BEAUTIRAN GARE;REGION POITOU-CHARENTES AQUITAINE;Gironde;44.701041;-0.45017
87582684;Cadaujac;CADAUJAC GARE;REGION POITOU-CHARENTES AQUITAINE;Gironde;44.7520628;-0.5376186
87582635;La Hume;LA HUME GARE;REGION POITOU-CHARENTES AQUITAINE;Gironde;44.639879;-1.11600
87582619;Gujan-Mestras;GUJAN MESTRAS GARE;REGION POITOU-CHARENTES AQUITAINE;Gironde;44.640454;-1.06906
87582601;Le Teich;LE TEICH GARE;REGION POITOU-CHARENTES AQUITAINE;Gironde;44.632507;-1.025556
87581538;Caudéran Mérignac;CAUDERAN MERIGNAC GARE;REGION POITOU-CHARENTES AQUITAINE;Gironde;44.84288;-0.6274337
87581009;Bordeaux Saint-Jean;BORDEAUX ST JEAN GARE;REGION POITOU-CHARENTES AQUITAINE;Gironde;44.825873;-0.556697
87576454;Nérondes;NERONDES (CHER) GARE;REGION CENTRE;Cher;46.9996897;2.8221695
87576215;Valençay;VALENCAY GARE B.A.;REGION CENTRE;Indre;47.163172;1.5584442
87576165;Villeherviers;VILLEHERVIERS GARE B.A.;REGION CENTRE;Loir-et-Cher;47.3694005;1.7972555
87576132;Marmagne;MARMAGNE (CHER) GARE;REGION CENTRE;Cher;47.1001505;2.2819971
87575167;Nerpuy;NERPUY HALTE;REGION POITOU-CHARENTES AQUITAINE;Vienne;46.7834177;0.5256884
87575118;Les Ormes;LES ORMES SUR VIENNE GARE;REGION POITOU-CHARENTES AQUITAINE;Vienne;46.9718269;0.6079476
87575035;Monts;MONTS (INDRE ET LOIRE) GARE;REGION CENTRE;Indre-et-Loire;47.28180;0.65448
87574897;Saint-Aignan - Noyers;SAINT AIGNAN NOYERS GARE;REGION CENTRE;Loir-et-Cher;47.2869126;1.3838369
87574541;Pezou;PEZOU GARE;REGION CENTRE;Loir-et-Cher;47.8673364;1.1408714
87574533;Fréteval - Morée;FRETEVAL MOREE GARE;REGION CENTRE;Loir-et-Cher;47.8919172;1.211813
87574459;Saint-Martin-le-Beau;SAINT MARTIN LE BEAU GARE;REGION CENTRE;Indre-et-Loire;47.3552058;0.9058418
87574434;Véretz - Montlouis;VERETZ MONTLOUIS GARE;REGION CENTRE;Indre-et-Loire;47.3715058;0.8199079
87574335;Limeray;LIMERAY GARE;REGION CENTRE;Indre-et-Loire;47.4502088;1.0499661
87574327;Veuves - Monteaux;VEUVES MONTEAUX GARE;REGION CENTRE;Loir-et-Cher;47.4756722;1.1238749
87574194;Mer;MER (LOIR ET CHER) GARE;REGION CENTRE;Loir-et-Cher;47.705860;1.506373
87574152;Baule;BAULE HALTE;REGION CENTRE;Loiret;47.8117535;1.668127
87574111;Chaingy Fourneaux Plage;CHAINGY FOURNEAUX PLAGE HALTE;REGION CENTRE;Loiret;47.8770705;1.782422
87571836;Cinq-Mars-la-Pile;CINQ MARS GARE;REGION CENTRE;Indre-et-Loire;47.3452264;0.4604878
87571828;Langeais;LANGEAIS GARE;REGION CENTRE;Indre-et-Loire;47.324114;0.410557
87571604;Ballan-Miré;BALLAN GARE;REGION CENTRE;Indre-et-Loire;47.3369919;0.6188975
87571547;Neuillé-Pont-Pierre;NEUILLE PONT PIERRE GARE;REGION CENTRE;Indre-et-Loire;47.5580135;0.5649155
87571463;Chambourg-sur-Indre;CHAMBOURG GARE;REGION CENTRE;Indre-et-Loire;47.1821629;0.9648363
87562421;Aulnat Aéroport;AULNAT GARE;REGION AUVERGNE;Puy-de-Dôme;45.7920571;3.1614332
87547307;Musée d'Orsay;PARIS MUSEE D ORSAY GARE;REGION DE PARIS RIVE GAUCHE;Paris;48.860790;2.325671
87546200;Orly Ville;ORLY VILLE P GARE;REGION DE PARIS RIVE GAUCHE;Val-de-Marne;48.741815;2.402650
87546192;Pont de Rungis Aéroport d'Orly;PONT DE RUNGIS AEROPORT D ORLY;REGION DE PARIS RIVE GAUCHE;Val-de-Marne;48.748163;2.372792
87545483;Breuillet - Bruyères-le-Châtel;BREUILLET BRUYERES LE CHATEL GARE;REGION DE PARIS RIVE GAUCHE;Essonne;48.577228;2.191721
87545459;La Norville - Saint-Germain-lès-Arpajon;LA NORVILLE ST GERMAIN LES ARPAJON PGAR;REGION DE PARIS RIVE GAUCHE;Essonne;48.591617;2.267586
87545285;Choisy-le-Roi;CHOISY LE ROI GARE;REGION DE PARIS RIVE GAUCHE;Val-de-Marne;48.763974;2.411102
87545251;Athis-Mons;ATHIS MONS GARE;REGION DE PARIS RIVE GAUCHE;Essonne;48.712557;2.403749
87545236;Savigny-sur-Orge;SAVIGNY SUR ORGE GARE;REGION DE PARIS RIVE GAUCHE;Essonne;48.67614;2.35173
87545194;Brétigny-sur-Orge;BRETIGNY;REGION DE PARIS RIVE GAUCHE;Essonne;48.606683;2.302378
87543207;Avenue du Président Kennedy Maison de Radio France;PARIS AVE DU PRESIDENT KENNEDY MRF GARE;REGION DE PARIS RIVE GAUCHE;Paris;48.853322;2.279969
87543140;Lamotte-Beuvron;LAMOTTE BEUVRON GARE;REGION CENTRE;Loir-et-Cher;47.593898;2.022499
87543090;Angerville;ANGERVILLE GARE;REGION DE PARIS RIVE GAUCHE;Essonne;48.3112062;2.0034931
87540179;Dourdan La Forêt;DOURDAN GARE;REGION DE PARIS RIVE GAUCHE;Essonne;48.535314;1.994908
87492108;Les Ardoines;VITRY SUR SEINE GARE;REGION DE PARIS RIVE GAUCHE;Val-de-Marne;48.782945;2.409046
87491225;Gauriaguet;GAURIAGUET GARE;REGION POITOU-CHARENTES AQUITAINE;Gironde;45.0542936;-0.3992689
87491134;Clion sur Seugne;;;Charente-Maritime;45.4783225;-0.502092
87487280;Cerizay;CERIZAY GARE;REGION PAYS DE LA LOIRE;Deux-Sèvres;46.8176878;-0.6689931
87487249;Bressuire;BRESSUIRE GARE;REGION PAYS DE LA LOIRE;Deux-Sèvres;46.8384462;-0.4963269
87486431;Olonne-sur-Mer;OLONNE SUR MER GARE;REGION PAYS DE LA LOIRE;;46.5486605;-1.76738
87486332;Chantonnay;CHANTONNAY GARE;REGION PAYS DE LA LOIRE;Vendée;46.6898472;-1.0544144
87486324;Bournezeau;BOURNEZEAU GARE;REGION PAYS DE LA LOIRE;Vendée;46.6518258;-1.1806169
87486316;Fougeré;FOUGERE GARE;REGION PAYS DE LA LOIRE;Vendée;46.6653044;-1.2319718
87486142;Belleville-sur-Vie;BELLEVILLE VENDEE GARE;REGION PAYS DE LA LOIRE;Vendée;46.788316;-1.4346673
87486126;L'Herbergement - Les Brouzils;L HERBERGEMENT LES BROUZILS GARE;REGION PAYS DE LA LOIRE;Vendée;46.9069172;-1.3712431
87485540;Lusignan;LUSIGNAN GARE;REGION POITOU-CHARENTES AQUITAINE;Vienne;46.4354949;0.116555
87485359;Prissé-la-Charrière;PRISSE LA CHARRIERE GARE;REGION POITOU-CHARENTES AQUITAINE;Deux-Sèvres;46.15277;-0.4936249
87485326;Fors;FORS GARE;REGION POITOU-CHARENTES AQUITAINE;Deux-Sèvres;46.2345203;-0.4069449
87485300;Niort;NIORT GARE;REGION POITOU-CHARENTES AQUITAINE;Deux-Sèvres;46.319491;-0.454639
87485144;Rochefort;ROCHEFORT GARE;REGION POITOU-CHARENTES AQUITAINE;Charente-Maritime;45.947189;-0.963556
87484246;Chemillé-en-Anjou;CHEMILLE GARE;REGION PAYS DE LA LOIRE;Maine-et-Loire;47.217748;-0.731989
87484170;Morannes;MORANNES GARE;REGION PAYS DE LA LOIRE;Maine-et-Loire;47.7390902;-0.4179693
87481838;Savenay;SAVENAY GARE;REGION PAYS DE LA LOIRE;Loire-Atlantique;47.358590;-1.950957
87481762;Le Pouliguen;LE POULIGUEN GARE;REGION PAYS DE LA LOIRE;Loire-Atlantique;47.2825404;-2.4331446
87478768;Saint-Pierre-la-Cour;SAINT PIERRE LA COUR GARE;REGION PAYS DE LA LOIRE;Mayenne;48.1135968;-1.0252972
87478743;Le Genest-Saint-Isle;LE GENEST GARE;REGION PAYS DE LA LOIRE;Mayenne;48.0967372;-0.8858084
87478545;Neau;NEAU GARE;REGION PAYS DE LA LOIRE;Mayenne;48.1574807;-0.4766725
87478180;Corseul - Languenan;CORSEUL LANGUENAN GARE;REGION BRETAGNE;Côtes-d'Armor;48.4960574;-2.1414331
87478164;Dinan;DINAN GARE;REGION BRETAGNE;Côtes-d'Armor;48.456764;-2.053542
87478057;Combourg;COMBOURG GARE;REGION BRETAGNE;Ille-et-Vilaine;48.41609;-1.72792
87476689;Malansac;MALANSAC GARE;REGION BRETAGNE;Morbihan;47.6756185;-2.2961796
87476226;Landaul - Mendon;LANDAUL MENDON GARE;REGION BRETAGNE;Morbihan;47.7359877;-3.0860172
87474635;Roscoff;ROSCOFF GARE;REGION BRETAGNE;Finistère;48.7207491;-3.9833434
87474569;Saint-Pol-de-Léon;SAINT POL DE LEON GARE;REGION BRETAGNE;Finistère;48.6768402;-3.98731
87474320;Pleyber-Christ;PLEYBER CHRIST GARE;REGION BRETAGNE;Finistère;48.5078255;-3.8825543
87474296;Guimiliau;GUIMILIAU GARE;REGION BRETAGNE;Finistère;48.4852675;-3.9996163
87474189;Bannalec;BANNALEC GARE;REGION BRETAGNE;Finistère;47.9267473;-3.7065268
87473850;Lancerf;LANCERF GARE;REGION BRETAGNE;Côtes-d'Armor;48.761873;-3.1181396
87473835;Pontrieux Halte;PONTRIEUX HALTE;REGION BRETAGNE;Côtes-d'Armor;48.6980361;-3.1644959
87473827;Brélidy - Plouëc;BRELIDY PLOUEC GARE;REGION BRETAGNE;Côtes-d'Armor;48.669204;-3.196269
87473553;Le Pénity;LE PENITY GARE;REGION BRETAGNE;Côtes-d'Armor;48.3646275;-3.4763815
87473538;Plougonver;PLOUGONVER GARE;REGION BRETAGNE;Côtes-d'Armor;48.4584133;-3.3704584
87473520;Pont-Melvez;PONT MELVEZ GARE;REGION BRETAGNE;Côtes-d'Armor;48.4702228;-3.3114444
87473223;Lannion;LANNION GARE;REGION BRETAGNE;Côtes-d'Armor;48.727638;-3.460353
87473132;Plouvara - Plerneuf;PLOUVARA PLERNEUF GARE;REGION BRETAGNE;Côtes-d'Armor;48.508585;-2.8925136
87473108;Lamballe;LAMBALLE GARE;REGION BRETAGNE;Côtes-d'Armor;48.466060;-2.511546
87473058;Quédillac;QUEDILLAC GARE;REGION BRETAGNE;Ille-et-Vilaine;48.2484804;-2.1452204
87471540;Noyal - Acigné;NOYAL ACIGNE GARE;REGION BRETAGNE;Ille-et-Vilaine;48.1187915;-1.5277646
87471359;Retiers;RETIERS GARE;REGION BRETAGNE;Ille-et-Vilaine;47.9132599;-1.3898439
87471334;Janzé;JANZE GARE;REGION BRETAGNE;Ille-et-Vilaine;47.955364;-1.497538
87471219;Beslé;BESLE GARE;REGION BRETAGNE;Loire-Atlantique;47.6988788;-1.8706374
87471045;Betton;BETTON GARE;REGION BRETAGNE;Ille-et-Vilaine;48.1814803;-1.6344745
87448084;Briouze;BRIOUZE GARE;REGION NORMANDIE;Orne;48.7018622;-0.3682036
87447680;Granville;GRANVILLE GARE;REGION NORMANDIE;Manche;48.838456;-1.587757
87447284;Valognes;VALOGNES GARE;REGION NORMANDIE;Manche;49.505454;-1.479860
87447144;Carantilly - Marigny;CARANTILLY MARIGNY GARE;REGION NORMANDIE;Manche;49.06786;-1.2445285
87447110;Coutances;COUTANCES GARE;REGION NORMANDIE;Manche;49.042928;-1.441726
87444695;Sées;SEES GARE;REGION NORMANDIE;Orne;48.5998998;0.1661851
87444539;Argentan;ARGENTAN GARE;REGION NORMANDIE;Orne;48.738545;-0.025291
87444414;Dives-sur-Mer - Cabourg;DIVES CABOURG GARE;REGION NORMANDIE;Calvados;49.2864776;-0.1074996
87444299;Bernay;BERNAY GARE;REGION NORMANDIE;Eure;49.087102;0.595634
87444083;Le Molay-Littry;LE MOLAY LITTRY P GARE;REGION NORMANDIE;Calvados;49.2493263;-0.8809741
87415885;Rosny-sur-Seine;ROSNY SUR SEINE GARE;REGION DE PARIS SAINT-LAZARE;Yvelines;48.997287;1.630090
87415877;Val-de-Reuil;LE VAL DE REUIL GARE;REGION NORMANDIE;Eure;49.275437;1.224147
87415018;Dieppe;DIEPPE GARE;REGION NORMANDIE;Seine-Maritime;49.921788;1.081133
87413740;Rolleville;ROLLEVILLE GARE;REGION NORMANDIE;Seine-Maritime;49.5820461;0.2157828
87413385;Yvetot;YVETOT GARE;REGION NORMANDIE;Seine-Maritime;49.622035;0.750115
87413377;Foucart - Alvimare;FOUCART ALVIMARE GARE;REGION NORMANDIE;Seine-Maritime;49.608289;0.5969601
87413302;Harfleur;HARFLEUR GARE;REGION NORMANDIE;Seine-Maritime;49.5136336;0.1989828
87411819;Clères;CLERES GARE;REGION NORMANDIE;Seine-Maritime;49.598964;1.106184
87411454;Montérolier - Buchy;MONTEROLIER BUCHY P GARE;REGION NORMANDIE;Seine-Maritime;49.6031854;1.3347457
87411447;Longuerue - Vieux-Manoir;LONGUERUE VIEUX MANOIR GARE;REGION NORMANDIE;Seine-Maritime;49.5566781;1.2762275
87411439;Morgny-la-Pommeraye;MORGNY GARE;REGION NORMANDIE;Seine-Maritime;49.5232183;1.2478526
87411215;Saint-Étienne-du-Rouvray;SAINT ETIENNE DU ROUVRAY GARE;REGION NORMANDIE;Seine-Maritime;49.3771553;1.1095673
87396408;Sablé-sur-Sarthe;SABLE GARE;REGION PAYS DE LA LOIRE;Sarthe;47.8415934;-0.3419359
87396366;La Suze-sur-Sarthe;LA SUZE GARE;REGION PAYS DE LA LOIRE;Sarthe;47.8919891;0.0266367
87396309;Connerré - Beillé;CONNERRE BEILLE GARE;REGION PAYS DE LA LOIRE;Sarthe;48.0735;0.48687
87396234;Sillé-le-Guillaume;SILLE LE GUILLAUME GARE;REGION PAYS DE LA LOIRE;Sarthe;48.1818735;-0.1289696
87396218;Conlie;CONLIE GARE;REGION PAYS DE LA LOIRE;Sarthe;48.1272909;-0.0113736
87396051;Teillé;TEILLE (SARTHE) GARE;REGION PAYS DE LA LOIRE;Sarthe;48.1812341;0.1913397
87396002;Le Mans;LE MANS GARE;REGION PAYS DE LA LOIRE;Sarthe;47.995689;0.192578
87394148;Saint-Piat;SAINT PIAT P GARE;REGION DE PARIS RIVE GAUCHE;Eure-et-Loir;48.5429526;1.5904889
87394007;Chartres;CHARTRES P GARE;REGION DE PARIS RIVE GAUCHE;Eure-et-Loir;48.4482023;1.4813128
87393876;Noisy-le-Roi;NOISY LE ROI GARE;REGION DE PARIS SAINT-LAZARE;Yvelines;48.8415189;2.0618388
87393835;Trappes;TRAPPES P GARE;REGION DE PARIS RIVE GAUCHE;Yvelines;48.7751158;2.0066335
87393702;Massy TGV;MASSY PALAISEAU P GARE;REGION DE PARIS RIVE GAUCHE;Essonne;48.725758;2.261254
87393561;Igny;IGNY GARE;REGION DE PARIS RIVE GAUCHE;Essonne;48.7399008;2.2313626
87393538;Vauboyen;VAUBOYEN P GARE;REGION DE PARIS RIVE GAUCHE;Yvelines;48.7590575;2.192119
87393462;Houdan;HOUDAN P GARE;REGION DE PARIS RIVE GAUCHE;Yvelines;48.7958005;1.6027371
87393439;Garancières - La Queue;GARANCIERES LA QUEUE GARE;REGION DE PARIS RIVE GAUCHE;Yvelines;48.8106338;1.7647546
87393306;Issy Val de Seine;ISSY VAL DE SEINE GARE;REGION DE PARIS RIVE GAUCHE;Hauts-de-Seine;48.8295555;2.2635936
87393280;Les Essarts-le-Roi;LES ESSARTS LE ROI GARE;REGION DE PARIS RIVE GAUCHE;Yvelines;48.7217171;1.8904047
87393157;Versailles Château Rive Gauche;VERSAILLES RIVE GAUCHE GARE;REGION DE PARIS RIVE GAUCHE;Yvelines;48.8003635;2.1288274
87393082;Meudon Val Fleury;MEUDON VAL FLEURY GARE;REGION DE PARIS RIVE GAUCHE;Hauts-de-Seine;48.8079884;2.2409045
87391565;Clamart;CLAMART GARE;REGION DE PARIS RIVE GAUCHE;Hauts-de-Seine;48.813844;2.2733273
87386763;Épône - Mézières;EPONE MEZIERES GARE;REGION DE PARIS SAINT-LAZARE;Yvelines;48.9631225;1.8085932
87386052;Achères Grand Cormier;ACHERES GRAND CORMIER GARE;REGION DE PARIS SAINT-LAZARE;Yvelines;48.9551835;2.0919031
87382879;Montreuil;MONTREUIL GARE;REGION DE PARIS SAINT-LAZARE;Yvelines;48.8067323;2.1511693
87382812;Mareil-Marly;MAREIL MARLY GARE;REGION DE PARIS SAINT-LAZARE;Yvelines;48.8807466;2.0790676
87382655;Cergy le Haut;CERGY LE HAUT GARE;REGION DE PARIS SAINT-LAZARE;Val-d'Oise;49.0484932;2.0118725
87382481;Saint-Nom-la-Bretèche Forêt de Marly;SAINT NOM LA BRETECHE GARE;REGION DE PARIS SAINT-LAZARE;Yvelines;48.8677671;2.0509372
87382358;Saint-Cloud;SAINT CLOUD GARE;REGION DE PARIS SAINT-LAZARE;Hauts-de-Seine;48.84541;2.21687
87382333;Chaville Rive Droite;CHAVILLE RIVE DROITE GARE;REGION DE PARIS SAINT-LAZARE;Hauts-de-Seine;48.81213;2.18785
87382267;Vaucresson;VAUCRESSON GARE;REGION DE PARIS SAINT-LAZARE;Hauts-de-Seine;48.83688;2.15255
87382002;Bécon les Bruyères;BECON LES BRUYERES GARE;REGION DE PARIS SAINT-LAZARE;Hauts-de-Seine;48.90592;2.26838
87381897;Conflans-Sainte-Honorine;CONFLANS STE HONORINE GARE;REGION DE PARIS SAINT-LAZARE;Yvelines;48.99646;2.09783
87381871;La Frette - Montigny;LA FRETTE MONTIGNY GARE;REGION DE PARIS SAINT-LAZARE;Val-d'Oise;48.98035;2.18019
87381822;Thun le Paradis;THUN LE PARADIS GARE;REGION DE PARIS SAINT-LAZARE;Yvelines;49.00687;1.91922
87381624;Bréval;BREVAL GARE;REGION DE PARIS SAINT-LAZARE;Yvelines;48.94336;1.54191
87381509;Mantes-la-Jolie;MANTES LA JOLIE GARE;REGION DE PARIS SAINT-LAZARE;Yvelines;48.98984;1.70337
87381491;Andrésy;ANDRESY CHANTELOUP GARE;REGION DE PARIS SAINT-LAZARE;Yvelines;48.97470;2.04928
87381293;Gournay - Ferrières;GOURNAY FERRIERES GARE;REGION NORMANDIE;Seine-Maritime;49.4813674;1.7380891
87381269;Sérifontaine;SERIFONTAINE GARE;REGION DE PARIS SAINT-LAZARE;Oise;49.3572878;1.7639818
87381210;Liancourt-Saint-Pierre;LIANCOURT ST PIERRE GARE;REGION DE PARIS SAINT-LAZARE;Oise;49.2204964;1.905543
87381202;Lavilletertre;LA VILLETERTRE GARE;REGION DE PARIS SAINT-LAZARE;Oise;49.2024666;1.9206361
87381194;Chars;CHARS GARE;REGION DE PARIS SAINT-LAZARE;Val-d'Oise;49.16268;1.93671
87381186;Santeuil - Le Perchay;SANTEUIL LE PERCHAY GARE;REGION DE PARIS SAINT-LAZARE;Val-d'Oise;49.12416;1.94893
87381178;Us;US GARE;REGION DE PARIS SAINT-LAZARE;Val-d'Oise;49.09969;1.97076
87381145;Osny;OSNY GARE;REGION DE PARIS SAINT-LAZARE;Val-d'Oise;49.06283;2.05771
87381038;Avenue Foch;PARIS AVENUE FOCH GARE;REGION DE PARIS RIVE GAUCHE;Paris;48.8709710;2.2756167
87345553;Bertry;BERTRY HALTE;REGION NORD PAS DE CALAIS;Nord;50.0911265;3.4489955
87345397;Iwuy;IWUY HALTE;REGION NORD PAS DE CALAIS;Nord;50.2255015;3.3298634
87345256;Libercourt;LIBERCOURT GARE;REGION NORD PAS DE CALAIS;Pas-de-Calais;50.48025;3.00867
87345231;Loison-sous-Lens;LOISON GARE;REGION NORD PAS DE CALAIS;Pas-de-Calais;50.4401891;2.8592403
87345165;Dourges;DOURGES GARE;REGION NORD PAS DE CALAIS;Pas-de-Calais;50.43192;2.98697
87345157;Hénin-Beaumont;HENIN BEAUMONT GARE;REGION NORD PAS DE CALAIS;Pas-de-Calais;50.41706;2.95211
87345132;Coron de Méricourt;LES CORONS DE MERICOURT HALTE;REGION NORD PAS DE CALAIS;Pas-de-Calais;50.4150048;2.8854084
87345124;Pont de Sallaumines;PONT DE SALLAUMINES HALTE;REGION NORD PAS DE CALAIS;Pas-de-Calais;50.4157922;2.8632044
87345108;Brebières;BREBIERES SUD HALTE;REGION NORD PAS DE CALAIS;Pas-de-Calais;50.33624;3.0142
87345041;Liévin;LIEVIN HALTE;REGION NORD PAS DE CALAIS;Pas-de-Calais;50.434139;2.7716316
87345025;Lens;LENS P GARE;REGION NORD PAS DE CALAIS;Pas-de-Calais;50.426818;2.828254
87343418;Prouvy - Thiant;PROUVY THIANT GARE;REGION NORD PAS DE CALAIS;Nord;50.3167933;3.4610838
87342592;Bailleul-Sir-Berthoult;BAILLEUL SIRE BERTHOULT HALTE;REGION NORD PAS DE CALAIS;Pas-de-Calais;50.3351257;2.8409809
87342543;Calonne-Ricouart;CALONNE RICOUART GARE;REGION NORD PAS DE CALAIS;Pas-de-Calais;50.4827036;2.4812098
87342451;Salomé;SALOME HALTE;REGION NORD PAS DE CALAIS;Nord;50.5414529;2.8366078
87342246;Aubigny-en-Artois;AUBIGNY EN ARTOIS P GARE;REGION NORD PAS DE CALAIS;Pas-de-Calais;50.35297;2.5928045
87342220;Chocques;CHOCQUES GARE;REGION NORD PAS DE CALAIS;Pas-de-Calais;50.5382038;2.564749
87337980;Saint-Ouen-l'Aumône Liesse;SAINT OUEN L AUMONE GARE;REGION DE PARIS-NORD;Val-d'Oise;49.0338707;2.1279345
87334490;Cesson-Sévigné;CESSON-SEVIGNE HALTE;REGION BRETAGNE;Ille-et-Vilaine;48.11281;-1.60211
87328195;Thésée;THESEE GARE;REGION CENTRE;Loir-et-Cher;47.322271;1.3120568
87324335;Hirson Écoles;;REGION NORD PAS DE CALAIS;Aisne;49.9288321;4.0861491
87324095;Futuroscope;FUTUROSCOPE STATION TGV;REGION POITOU-CHARENTES AQUITAINE;Vienne;46.669918;0.377209
87981902;Avignon TGV terminal TER;AVIGNON TGV;REGION PROVENCE ALPES COTE D'AZUR;Vaucluse;43.921586;4.786079
87317396;Noyelles-sur-Mer;NOYELLES GARE;REGION PICARDIE;Somme;50.1875408;1.7045772
87317255;Anvin;ANVIN HALTE;REGION NORD PAS DE CALAIS;Pas-de-Calais;50.446845;2.25494
87317065;Étaples - Le Touquet;ETAPLES LE TOUQUET GARE;REGION NORD PAS DE CALAIS;Pas-de-Calais;50.51686;1.64231
87316398;Heilles - Mouchy;HEILLES MOUCHY GARE;REGION DE PARIS-NORD;Oise;49.340531;2.2725858
87316190;Famechon;;;;;
87316075;Dreuil-lès-Amiens;DREUIL LES AMIENS GARE;REGION PICARDIE;Somme;49.91444;2.23091
87316067;Buire-sur-l'Ancre;BUIRE SUR L ANCRE GARE;REGION PICARDIE;Somme;49.9647735;2.5981885
87313817;Longroy - Gamaches;LONGROY GAMACHES GARE;REGION PICARDIE;Seine-Maritime;49.9818917;1.5526598
87313767;Aumale;AUMALE GARE;REGION PICARDIE;Seine-Maritime;49.7650371;1.7560425
87313742;Feuquières - Broquiers;FEUQUIERES BROQUIERS GARE;REGION PICARDIE;Oise;49.6545751;1.8305169
87313718;Saint-Omer-en-Chaussée;SAINT OMER EN CHAUSSEE GARE;REGION DE PARIS-NORD;Oise;49.5306261;1.9970829
87313700;Milly-sur-Thérain;MILLY SUR THERAIN GARE;REGION DE PARIS-NORD;Oise;49.5035256;1.988233
87313601;Rochy-Condé;ROCHY CONDE GARE;REGION DE PARIS-NORD;Oise;49.3986042;2.1727344
87313593;Villers-Saint-Sépulcre;VILLERS ST SEPULCRE GARE;REGION DE PARIS-NORD;Oise;49.3680779;2.2204386
87313551;Cires-lès-Mello;CIRES LES MELLO GARE;REGION DE PARIS-NORD;Oise;49.2717956;2.3601903
87313544;Cramoisy;CRAMOISY GARE;REGION DE PARIS-NORD;Oise;49.256625;2.40489
87313486;Nesle;NESLE (SOMME) P GARE;REGION PICARDIE;Somme;49.7639147;2.9089882
87313270;Saint-Just-en-Chaussée;SAINT JUST EN CHAUSSEE GARE;REGION DE PARIS-NORD;Oise;49.50364;2.42949
87313262;Gannes;GANNES GARE;REGION DE PARIS-NORD;Oise;49.5723315;2.4370074
87313247;Breteuil;BRETEUIL EMBRANCHEMENT GARE;REGION PICARDIE;Oise;49.626389;2.3845164
87313221;Ailly-sur-Noye;AILLY SUR NOYE GARE;REGION PICARDIE;Somme;49.75448;2.36419
87313114;Hangest-sur-Somme;HANGEST GARE;REGION PICARDIE;Somme;49.9822011;2.0661412
87313064;Méricourt - Ribemont;MERICOURT RIBEMONT GARE;REGION PICARDIE;Somme;49.9556384;2.5726254
87303875;Ingersheim Cité Scolaire;;REGION ALSACE;Haut-Rhin;48.0888721;7.2976143
87300822;Belfort - Montbéliard TGV;BELFORT - MONTBELIARD TGV P GARE;REGION LORRAINE;Territoire de Belfort;47.585937;6.897687
87296566;Anizy - Pinon;ANIZY PINON GARE;REGION PICARDIE;Aisne;49.4960073;3.4487637
87296459;Appilly;APPILLY GARE;REGION PICARDIE;Oise;49.5808826;3.1221903
87296145;Origny-en-Thiérache;ORIGNY EN THIERACHE GARE;REGION PICARDIE;Aisne;49.8906693;4.0241558
87296012;Laon;LAON GARE;REGION PICARDIE;Aisne;49.57061;3.62443
87296004;Saint-Quentin;SAINT QUENTIN GARE;REGION PICARDIE;Aisne;49.8400482;3.2970089
87295857;Le Quesnoy;LE QUESNOY (NORD) GARE;REGION NORD PAS DE CALAIS;Nord;50.25021;3.64552
87295725;Avesnelles;AVESNELLES HALTE;REGION NORD PAS DE CALAIS;Nord;50.1185513;3.9485876
87287250;Lille Porte de Douai;LILLE PORTE DE DOUAI HALTE;REGION NORD PAS DE CALAIS;Nord;50.6119054;3.075837
87287235;Bouvines;;;Nord;50.5737864;3.2021971
87286872;Baisieux;BAISIEUX GARE;REGION NORD PAS DE CALAIS;Nord;50.61845;3.2347796
87286856;Annappes;ASCQ GARE;REGION NORD PAS DE CALAIS;Nord;50.6227708;3.1475351
87286849;Lesquin;LESQUIN GARE;REGION NORD PAS DE CALAIS;Nord;50.59068;3.11771
87286781;Cysoing;;;Nord;50.5620393;3.2098913
87286740;Tressin;;;Nord;50.6118114;3.1895634
87286542;Tourcoing;TOURCOING GARE;REGION NORD PAS DE CALAIS;Nord;50.71683;3.16804
87286500;Phalempin;PHALEMPIN GARE;REGION NORD PAS DE CALAIS;Nord;50.51540;3.01990
87286435;Don - Sainghin;DON SAINGHIN GARE;REGION NORD PAS DE CALAIS;Nord;50.55176;2.91458
87286427;La Fontaine;LA FONTAINE (NORD) HALTE;REGION NORD PAS DE CALAIS;Nord;50.5661459;2.9261079
87286195;Saint-André-lez-Lille;SAINT ANDRE (NORD) P GARE;REGION NORD PAS DE CALAIS;Nord;50.6544842;3.0475916
87286096;Haubourdin;HAUBOURDIN GARE;REGION NORD PAS DE CALAIS;Nord;50.6070495;2.990153
87286062;Hellemmes;HELLEMMES GARE;REGION NORD PAS DE CALAIS;Nord;50.6226402;3.1149328
87282624;Lyon Jean Macé;LYON GUILLOTIERE GARE;REGION RHONE-ALPES;Rhône;45.74495;4.84139
87281899;Haussmann Saint-Lazare;HAUSSMANN ST LAZARE GARE EOLE (SNCF);REGION DE PARIS-EST;Paris;48.87478;2.32862
87281444;Saint-Omer;SAINT OMER (PAS DE CALAIS) GARE;REGION NORD PAS DE CALAIS;Pas-de-Calais;50.7536204;2.2667624
87281246;Gravelines;GRAVELINES GARE;REGION NORD PAS DE CALAIS;Nord;50.978736;2.1232852
87276766;Ribécourt-Dreslincourt;RIBECOURT GARE;REGION DE PARIS-NORD;Oise;49.50633;2.92714
87276626;Vaucelles;VAUCELLES HALTE;REGION DE PARIS-NORD;Val-d'Oise;49.02193;2.22885
87276584;Ermont Halte;ERMONT HALTE;REGION DE PARIS-NORD;Val-d'Oise;48.98980;2.26323
87276568;Viarmes;VIARMES GARE;REGION DE PARIS-NORD;Val-d'Oise;49.11692;2.36838
87276543;Auvers-sur-Oise;AUVERS SUR OISE GARE;REGION DE PARIS-NORD;Val-d'Oise;49.07062;2.17526
87276469;Persan - Beaumont;PERSAN BEAUMONT GARE;REGION DE PARIS-NORD;Val-d'Oise;49.14795;2.27914
87276451;Bruyères-sur-Oise;BRUYERES SUR OISE GARE;REGION DE PARIS-NORD;Val-d'Oise;49.1552098;2.3259636
87276345;Deuil - Montmagny;DEUIL MONTMAGNY P GARE;REGION DE PARIS-NORD;Val-d'Oise;48.97589;2.33785
87276311;Chevrières;CHEVRIERES GARE;REGION DE PARIS-NORD;Oise;49.3373064;2.6828025
87276212;Liancourt - Rantigny;LIANCOURT RANTIGNY P GARE;REGION DE PARIS-NORD;Oise;49.32471;2.44532
87276188;Sannois;SANNOIS GARE;REGION DE PARIS SAINT-LAZARE;Val-d'Oise;48.97016;2.26377
87276097;Pierrelaye;PIERRELAYE GARE;REGION DE PARIS-NORD;Val-d'Oise;49.01955;2.15371
87276006;Creil;CREIL P GARE;REGION DE PARIS-NORD;Oise;49.2637570;2.4692439
87271783;Vierzy;VIERZY GARE;REGION DE PARIS-NORD;Aisne;49.2910309;3.2773026
87271734;Villers-Cotterêts;VILLERS COTTERETS GARE;REGION DE PARIS-NORD;Aisne;49.25026;3.09370
87271585;Ormoy-Villers;ORMOY VILLERS GARE;REGION DE PARIS-NORD;Oise;49.2003204;2.8379502
87271551;Le Plessis-Belleville;LE PLESSIS BELLEVILLE P GARE;REGION DE PARIS-NORD;Oise;49.0959033;2.7448073
87271486;Parc des Expositions;VILLEPINTE PARC DES EXPOSITIONS;REGION DE PARIS-NORD;Seine-Saint-Denis;48.97334;2.51382
87271478;Le Blanc-Mesnil;DRANCY GARE;REGION DE PARIS-NORD;Seine-Saint-Denis;48.93248;2.47747
87271395;Le Bourget;DRANCY GARE;REGION DE PARIS-NORD;Seine-Saint-Denis;48.93096;2.42571
87697359;Le Bourget T11;DRANCY GARE;REGION DE PARIS-NORD;;;
87271205;Gennevilliers;GENNEVILLIERS GARE;REGION DE PARIS-NORD;Hauts-de-Seine;48.93368;2.30699
87271015;Saint-Denis;SAINT DENIS GARE;REGION DE PARIS-NORD;Seine-Saint-Denis;48.9354933;2.3459524
87271023;Paris Gare du Nord RER;PARIS NORD GARE;REGION DE PARIS-NORD;Paris;48.880185;2.355151
87271007;Paris Gare du Nord transmanche;PARIS NORD GARE;REGION DE PARIS-NORD;Paris;48.880185;2.355151
87215665;Diemeringen;DIEMERINGEN P GARE;REGION ALSACE;Bas-Rhin;48.94050;7.18529
87215640;Voellerdingen;;;;;
87215491;Keskastel;;;Bas-Rhin;48.9656988;7.0489315
87215459;Sarre-Union;SARRE UNION P GARE;;Bas-Rhin;48.9360172;7.0850443
87215335;Berthelming;BERTHELMING P GARE;REGION ALSACE;Moselle;48.8096475;7.0087859
87215160;Lutzelbourg;LUTZELBOURG P GARE;REGION ALSACE;Moselle;48.7299065;7.2516808
87215103;Igney - Avricourt;IGNEY AVRICOURT P GARE;REGION LORRAINE;Meurthe-et-Moselle;48.6467012;6.8053062
87214775;Bourg-Bruche;BOURG BRUCHE GARE;REGION ALSACE;Bas-Rhin;48.3598566;7.1371919
87214650;Lutzelhouse;LUTZELHOUSE P GARE;REGION ALSACE;Bas-Rhin;48.51812;7.29391
87214635;Urmatt;URMATT P GARE;REGION ALSACE;Bas-Rhin;48.5257763;7.3385385
87214536;Duppigheim;DUPPIGHEIM GARE;REGION ALSACE;Bas-Rhin;48.5439674;7.5868091
87214502;Lingolsheim;LINGOLSHEIM GARE;REGION ALSACE;Bas-Rhin;48.5594092;7.6781143
87214247;Barr;BARR GARE;REGION ALSACE;Bas-Rhin;48.4032933;7.4565189
87214213;Dambach-la-Ville;DAMBACH LA VILLE GARE;REGION ALSACE;Bas-Rhin;48.3216345;7.4355565
87213603;Marienthal;MARIENTHAL GARE;REGION ALSACE;Bas-Rhin;48.781863;7.8231894
87213454;Hunspach;HUNSPACH GARE;;Bas-Rhin;48.9616379;7.9537409
87213421;Soultz-sous-Forêts;SOULTZ SOUS FORETS GARE;REGION ALSACE;Bas-Rhin;48.9347687;7.8827184
87213207;Mertzwiller;MERTZWILLER GARE;REGION ALSACE;Bas-Rhin;48.872013;7.6781895
87212449;Munchhausen;MUNCHHAUSEN GARE;REGION ALSACE;Bas-Rhin;48.9237982;8.1409912
87212431;Seltz;SELTZ GARE;REGION ALSACE;Bas-Rhin;48.8965635;8.0986724
87212357;Drusenheim;DRUSENHEIM GARE;REGION ALSACE;Bas-Rhin;48.7659128;7.9478463
87212340;Herrlisheim;HERRLISHEIM (BAS RHIN) GARE;REGION ALSACE;Bas-Rhin;48.7279056;7.9102594
87212316;La Wantzenau;LA WANTZENAU GARE;REGION ALSACE;Bas-Rhin;48.6651895;7.8247832
87212274;Limersheim;LIMERSHEIM GARE;REGION ALSACE;Bas-Rhin;48.4617328;7.6603581
87212266;Fegersheim - Lipsheim;FEGERSHEIM GARE;REGION ALSACE;Bas-Rhin;48.4905892;7.6724806
87212258;Geispolsheim;GEISPOLSHEIM GARE;REGION ALSACE;Bas-Rhin;48.5190515;7.6843578
87212191;Strasbourg Roethig;LINGOLSHEIM GARE;REGION ALSACE;Bas-Rhin;48.5632897;7.6950455
87208553;Casino Lacroix Laval;HALTE DE LACROIX LAVAL;REGION RHONE-ALPES;Rhône;45.7878115;4.7309383
87194274;Longuyon;LONGUYON GARE;REGION LORRAINE;Meurthe-et-Moselle;49.4442555;5.604482
87193797;Petit-Réderching;;;Moselle;49.0493205;7.2997305
87193656;Wittring;WITTRING GARE;REGION LORRAINE;Moselle;49.0559404;7.1410655
87193615;Sarreguemines;SARREGUEMINES P GARE;REGION LORRAINE;Moselle;49.1073357;7.0686398
87193276;Hombourg-Haut;HOMBOURG HAUT GARE;REGION LORRAINE;Moselle;49.1261085;6.7742703
87193250;Béning-lès-Saint-Avold;BENING P GARE;REGION LORRAINE;Moselle;49.1379541;6.8282982
87192658;Baroncourt;BARONCOURT P GARE;REGION LORRAINE;Meuse;49.2845332;5.6997387
87192476;Vandières;VANDIERES GARE;REGION LORRAINE;Meurthe-et-Moselle;48.9521683;6.0392275
87192427;Novéant-sur-Moselle;NOVEANT GARE;REGION LORRAINE;Moselle;49.028635;6.052101
87192211;Courcelles-sur-Nied;COURCELLES SUR NIED GARE;REGION LORRAINE;Moselle;49.0634035;6.3109926
87192203;Peltre;PELTRE GARE;REGION LORRAINE;Moselle;49.073877;6.2220476
87192039;Metz;METZ ENTRETIEN VILLE GARE;REGION LORRAINE;Moselle;49.109545;6.176593
87191718;Moyeuvre-Grande;MOYEUVRE GRANDE GARE;REGION LORRAINE;Moselle;49.246713;6.043226
87191601;Basse-Ham;BASSE HAM GARE;REGION LORRAINE;Moselle;49.3805708;6.2348709
87191395;Freistroff;;;Moselle;49.2780593;6.4926709
87191114;Hagondange;HAGONDANGE P GARE;REGION LORRAINE;Moselle;49.25356;6.16448
87191106;Maizières-lès-Metz;MAIZIERES LES METZ GARE;REGION LORRAINE;Moselle;49.2155349;6.1588762
87191098;Waligator Parc;MAIZIERES LES METZ GARE;REGION LORRAINE;Moselle;49.22492;6.15946
87191007;Thionville;THIONVILLE GARE;REGION LORRAINE;Moselle;49.353931;6.169543
87185595;Luxeuil-les-Bains;LUXEUIL LES BAINS GARE;REGION BOURGOGNE FRANCHE-COMTE;Haute-Saône;47.8148606;6.3726593
87185348;Champagney;CHAMPAGNEY GARE;REGION BOURGOGNE FRANCHE-COMTE;Haute-Saône;47.7031399;6.7012773
87184267;Petit-Croix;PETIT CROIX P GARE;REGION ALSACE;Territoire de Belfort;47.6101045;6.9947414
87182725;Merxheim;MERXHEIM GARE;REGION ALSACE;Haut-Rhin;47.9126413;7.3022795
87182709;Bollwiller;BOLLWILLER P GARE;REGION ALSACE;Haut-Rhin;47.8569694;7.2672555
87182691;Staffelfelden;STAFFELFELDEN GARE;REGION ALSACE;Haut-Rhin;47.8279612;7.2651657
87182626;Fellering;FELLERING GARE;REGION ALSACE;Haut-Rhin;47.8975893;6.9871347
87182618;Wesserling;WESSERLING GARE;REGION ALSACE;Haut-Rhin;47.8899651;6.997519
87182592;Moosch;MOOSCH GARE;REGION ALSACE;Haut-Rhin;47.8607454;7.0507631
87182576;Bitschwiller-lès-Thann;BITSCHWILLER GARE;REGION ALSACE;Haut-Rhin;47.8273719;7.078514
87182550;Vieux-Thann;VIEUX THANN GARE;REGION ALSACE;Haut-Rhin;47.8058505;7.1194904
87182337;Rouffach;ROUFFACH GARE;REGION ALSACE;Haut-Rhin;47.9602481;7.312455
87182238;Altkirch;ALTKIRCH P GARE;REGION ALSACE;Haut-Rhin;47.6270174;7.2392493
87534321;Mulhouse Dornach Tram Train;MULHOUSE DORNACH GARE;REGION ALSACE;Haut-Rhin;;
87181081;Valdieu;;;;;
87175216;St-Eulien;;;;;
87174441;Saint-Hilaire-au-Temple;;;Marne;49.05593;4.37967
87174433;Bouy;;;Marne;49.09131;4.35292
87174326;Blesme - Haussignémont;;;;;
87172874;Fépin;FEPIN GARE;REGION CHAMPAGNE-ARDENNE;Ardennes;50.0234644;4.7266156
87172353;Carignan;CARIGNAN GARE;REGION CHAMPAGNE-ARDENNE;Ardennes;49.6285736;5.1684754
87172122;Aubrives;AUBRIVES GARE;REGION CHAMPAGNE-ARDENNE;Ardennes;50.1044507;4.7616512
87172080;Revin;REVIN GARE;REGION CHAMPAGNE-ARDENNE;Ardennes;49.938756;4.642536
87172049;Bogny-sur-Meuse;BOGNY SUR MEUSE GARE;REGION CHAMPAGNE-ARDENNE;Ardennes;49.8583117;4.7632317
87172023;Nouzonville;NOUZONVILLE GARE;REGION CHAMPAGNE-ARDENNE;Ardennes;49.8120125;4.7428155
87171751;Saint-Erme-Outre-et-Ramecourt;SAINT ERME GARE;REGION CHAMPAGNE-ARDENNE;Aisne;49.5269865;3.8576502
87171348;Bazoches;;;Aisne;49.30518;3.6163588
87171256;Montbré;;;Marne;49.1942075;4.0388482
87164798;La Plaine Stade de France - Saint-Denis - Aubervilliers;LA PLAINE VOYAGEURS GARE;REGION DE PARIS-NORD;Seine-Saint-Denis;48.91839;2.36257
87159947;Ker Lann;BRUZ HALTE DE KERLANN;REGION BRETAGNE;Ille-et-Vilaine;48.0429857;-1.7398306
87146217;Saint-Nabord;SAINT NABORD GARE;REGION LORRAINE;Vosges;48.0461722;6.5818945
87144428;Pouxeux;POUXEUX GARE;REGION LORRAINE;Vosges;48.1039421;6.5810266
87144329;Lesseux - Frapelle;;;Vosges;48.2898717;7.0767025
87144311;Rozières-sur-Mouzon;;;Vosges;48.1208921;5.7054886
87142364;Andilly;;;;;
87142273;Donjeux;DONJEUX P GARE;REGION CHAMPAGNE-ARDENNE;Haute-Marne;48.3658544;5.1482245
87141788;Pompey;POMPEY GARE;REGION LORRAINE;Meurthe-et-Moselle;48.77304;6.13061
87141598;Tantonville;;;Meurthe-et-Moselle;48.4838433;6.129105
87141564;Pulligny - Autrey;;;Meurthe-et-Moselle;48.5360716;6.1374765
87141556;Pierreville;;;Meurthe-et-Moselle;48.5488838;6.1241409
87141291;Neufchâteau;NEUFCHATEAU GARE;REGION LORRAINE;Vosges;48.3583428;5.6904018
87141200;Einvaux;EINVAUX GARE;REGION LORRAINE;Meurthe-et-Moselle;48.5034859;6.3932959
87141085;Champigneulles;CHAMPIGNEULLES P GARE;REGION LORRAINE;Meurthe-et-Moselle;48.73499;6.16913
87141044;Toul;TOUL P GARE;REGION LORRAINE;Meurthe-et-Moselle;48.679018;5.880615
87118158;Romilly-sur-Seine;ROMILLY SUR SEINE GARE;REGION DE PARIS-EST;Aube;48.514433;3.728887
87116772;Crécy-la-Chapelle;CRECY EN BRIE LA CHAPELLE GARE;REGION DE PARIS-EST;Seine-et-Marne;48.859391;2.905748
87116640;Crouy-sur-Ourcq;CROUY SUR OURCQ GARE;REGION DE PARIS-EST;Seine-et-Marne;49.091821;3.063081
87116178;Sainte-Colombe Septveilles;SAINTE COLOMBE SEPTVEILLES GARE;REGION DE PARIS-EST;Seine-et-Marne;48.52959;3.25602
87116020;Ozoir-la-Ferrière;OZOIR LA FERRIERE GARE;REGION DE PARIS-EST;Seine-et-Marne;48.770720;2.689841
87113860;Gargan;GARGAN GARE;REGION DE PARIS-EST;Seine-Saint-Denis;48.908159;2.517109
87113712;Val de Fontenay;VAL DE FONTENAY GARE RER/SNCF;REGION DE PARIS-EST;Val-de-Marne;48.854238;2.489097
87113514;Gagny;GAGNY P GARE;REGION DE PARIS-EST;Seine-Saint-Denis;48.883125;2.527106
87485060;Marans;;;Charente-Maritime;46.30433;-1.00127
87700146;Danjoutin;;;Territoire de Belfort;47.61750;6.86919
87721845;Allières;;;;;
87613240;Auzits-Aussibals;;;;;
87491589;Blaye;;;;;
87447250;Chef-du-Pont-Ste-Mère;;;;;
87215657;Domfessel;;;;;
87641829;Évaux-les-Bains;;;;;
87316463;Fontaine-Lavaganne;;;;;
87345462;Fressies;;;;;
87413526;Grainville-Ymauville;;;;;
87681320;Grigny-Val-de-Seine;;;;;
87297069;Jussy;;;;;
87249789;La Ferrière;;;;;
87413534;Les Ifs;;;;;
87715227;Les Longevilles-Rochejean;;;;;
87694406;Maison-Dieu (Yonne);;;;;
87316497;Moliens;;;;;
87694661;Palinges;;;;;
87473355;Ploeuc-L'Hermitage;;;;;
87645432;Polminhac;;;;;
87272203;Pont-l'Évêque-sur-Oise;;;;;
87710723;Portes-de-Vesoul;;;;;
87584458;Sauveboeuf;;;;;
87613497;Viazac;;;;;
87184408;Méroux;;;Territoire de Belfort;47.58659;6.89903
87742262;Toulon Sainte-Musse;;REGION PROVENCE ALPES COTE D'AZUR;Var;;
87784793;Mont-Louis - La Cabanasse;MONT LOUIS LA CABANASSE GARE;REGION LANGUEDOC-ROUSSILLON;Pyrénées-Orientales;42.5020902;2.1131379
87784785;Planès;PLANES GARE;REGION LANGUEDOC-ROUSSILLON;Pyrénées-Orientales;42.5009185;2.1369269
87784744;Thuès les Bains;THUES LES BAINS GARE;REGION LANGUEDOC-ROUSSILLON;Pyrénées-Orientales;42.5288009;2.249094
87784561;Ille-sur-Têt;ILLE SUR TET GARE;REGION LANGUEDOC-ROUSSILLON;Pyrénées-Orientales;42.6682396;2.6242863
87784520;Saint-Féliu-d'Avall;SAINT FELIU D AVALL GARE;REGION LANGUEDOC-ROUSSILLON;Pyrénées-Orientales;42.6772874;2.7378217
87784512;Le Soler;LE SOLER GARE;REGION LANGUEDOC-ROUSSILLON;Pyrénées-Orientales;42.6787626;2.7930798
87784256;Collioure;COLLIOURE GARE;REGION LANGUEDOC-ROUSSILLON;Pyrénées-Orientales;42.5269437;3.0782319
87784173;Rivesaltes;RIVESALTES GARE;REGION LANGUEDOC-ROUSSILLON;Pyrénées-Orientales;42.7664405;2.86789
87784009;Perpignan;PERPIGNAN GARE;REGION LANGUEDOC-ROUSSILLON;Pyrénées-Orientales;42.696292;2.879779
87781583;Le Bousquet-d'Orb;LE BOUSQUET D ORB GARE;REGION LANGUEDOC-ROUSSILLON;Hérault;43.6912097;3.1689379
87781260;Vias;VIAS GARE;REGION LANGUEDOC-ROUSSILLON;Hérault;43.315653;3.4253562
87781005;Béziers;BEZIERS GARE;REGION LANGUEDOC-ROUSSILLON;Hérault;43.336330;3.218873
87775866;Le Grau-du-Roi;LE GRAU DU ROI GARE;REGION LANGUEDOC-ROUSSILLON;Gard;43.5371273;4.140338
87775841;Saint-Laurent-d'Aigouze;SAINT LAURENT D AIGOUZE GARE;REGION LANGUEDOC-ROUSSILLON;Gard;43.6392883;4.1930703
87775833;Aimargues;AIMARGUES GARE;REGION LANGUEDOC-ROUSSILLON;Gard;43.6786107;4.2082933
87775825;Le Cailar;LE CAILAR GARE;REGION LANGUEDOC-ROUSSILLON;Gard;43.6834141;4.2354236
87775544;Saint-Julien les Fumades;;;Gard;;
87775510;Gammal;;;Gard;;
87775213;Génolhac;GENOLHAC GARE;REGION LANGUEDOC-ROUSSILLON;Gard;44.3471626;3.9516407
87775171;La Bastide - Saint-Laurent-les-Bains;LA BASTIDE ST LAURENT LES BAINS GARE;REGION LANGUEDOC-ROUSSILLON;Lozère;44.5934829;3.9042849
87775072;Saint-Césaire;SAINT CESAIRE GARE;REGION LANGUEDOC-ROUSSILLON;Gard;43.8133863;4.3276399
87775023;Beaucaire;BEAUCAIRE GARE;REGION LANGUEDOC-ROUSSILLON;Gard;43.80209;4.6470865
87773424;Lunel-Viel;LUNEL VIEL GARE;REGION LANGUEDOC-ROUSSILLON;Hérault;43.6811729;4.0937398
87765503;Cavaillon;CAVAILLON GARE;REGION PROVENCE ALPES COTE D'AZUR;Vaucluse;43.834554;5.043613
87765438;Saint-Saturnin-lès-Avignon;SAINT SATURNIN D AVIGNON P GARE;REGION PROVENCE ALPES COTE D'AZUR;Vaucluse;43.9531783;4.9352794
87765412;Montfavet;MONTFAVET GARE;REGION PROVENCE ALPES COTE D'AZUR;Vaucluse;43.932635;4.873943
87765206;Sorgues - Châteauneuf-du-Pape;SORGUES CHATEAUNEUF DU PAPE GARE;REGION PROVENCE ALPES COTE D'AZUR;Vaucluse;44.0053909;4.8756182
87764308;Pierrelatte;PIERRELATTE GARE;REGION RHONE-ALPES;Drôme;44.374719;4.703783
87763250;Aspres-sur-Buëch;ASPRES SUR BUECH GARE;REGION PROVENCE ALPES COTE D'AZUR;Hautes-Alpes;44.519428;5.7545655
87761783;Crest;CREST GARE;REGION RHONE-ALPES;Drôme;44.7301546;5.0160968
87761742;Poliénas;POLIENAS GARE;REGION ALPES;Isère;45.256006;5.4735849
87761726;Vinay;VINAY GARE;REGION ALPES;Isère;45.20797;5.41005
87761650;Romans - Bourg-de-Péage;ROMANS BOURG DE PEAGE GARE;REGION RHONE-ALPES;Drôme;45.048857;5.049800
87761130;Saint-Vallier sur Rhône;SAINT VALLIER SUR RHONE GARE;REGION RHONE-ALPES;Drôme;45.186395;4.814390
87761106;Saint-Rambert-d'Albon;SAINT RAMBERT D ALBON P GARE;REGION RHONE-ALPES;Drôme;45.297797;4.810849
87757757;Le Bosquet;LE BOSQUET HALTE;REGION PROVENCE ALPES COTE D'AZUR;Alpes-Maritimes;43.5515285;6.9816599
87757740;La Frayère;LA FRAYERE HALTE;REGION PROVENCE ALPES COTE D'AZUR;Alpes-Maritimes;43.5581088;6.9720902
87757732;Ranguin;RANGUIN P GARE;REGION PROVENCE ALPES COTE D'AZUR;Alpes-Maritimes;43.5691636;6.9693134
87757674;Antibes;ANTIBES GARE;REGION PROVENCE ALPES COTE D'AZUR;Alpes-Maritimes;43.585784;7.119498
87757666;Juan les Pins;JUAN LES PINS GARE;REGION PROVENCE ALPES COTE D'AZUR;Alpes-Maritimes;43.570896;7.111440
87757625;Cannes;CANNES GARE;REGION PROVENCE ALPES COTE D'AZUR;Alpes-Maritimes;43.553839;7.019682
87757583;Théoule-sur-Mer;THEOULE SUR MER GARE;REGION PROVENCE ALPES COTE D'AZUR;Alpes-Maritimes;43.5134929;6.9367978
87757526;Saint-Raphaël;SAINT RAPHAEL VALESCURE GARE;REGION PROVENCE ALPES COTE D'AZUR;Var;43.423560;6.769083
87757500;Fréjus;FREJUS GARE;REGION PROVENCE ALPES COTE D'AZUR;Var;43.432032;6.732941
87756833;Breil-sur-Roya;BREIL SUR ROYA GARE;REGION PROVENCE ALPES COTE D'AZUR;Alpes-Maritimes;43.944039;7.5163276
87756825;Sospel;SOSPEL GARE;REGION PROVENCE ALPES COTE D'AZUR;Alpes-Maritimes;43.876545;7.453788
87756809;L'Escarène;L ESCARENE GARE;REGION PROVENCE ALPES COTE D'AZUR;Alpes-Maritimes;43.8397674;7.3517085
87756494;Menton Garavan;MENTON GARAVAN GARE;REGION PROVENCE ALPES COTE D'AZUR;Alpes-Maritimes;43.785202;7.517297
87756486;Menton;MENTON GARE;REGION PROVENCE ALPES COTE D'AZUR;Alpes-Maritimes;43.774444;7.493300
87756395;Cap-d'Ail;CAP D AIL GARE;REGION PROVENCE ALPES COTE D'AZUR;Alpes-Maritimes;43.7205382;7.3943362
87756361;Villefranche-sur-Mer;VILLEFRANCHE SUR MER GARE;REGION PROVENCE ALPES COTE D'AZUR;Alpes-Maritimes;43.707061;7.314129
87756312;Hippodrome-de-la-côte-d'azur;;;;;
87755363;Puget-Ville;PUGET VILLE GARE;REGION PROVENCE ALPES COTE D'AZUR;Var;43.283085;6.1384483
87755264;La Seyne - Six-Fours;LA SEYNE TAMARIS SUR MER P GARE;REGION PROVENCE ALPES COTE D'AZUR;Var;43.116959;5.876966
87755223;Bandol;BANDOL GARE;REGION PROVENCE ALPES COTE D'AZUR;Var;43.140344;5.750118
87753764;Salon-de-Provence;SALON GARE;REGION PROVENCE ALPES COTE D'AZUR;Bouches-du-Rhône;43.639061;5.088569
87753715;Sénas;SENAS GARE;REGION PROVENCE ALPES COTE D'AZUR;Bouches-du-Rhône;43.7409571;5.0733645
87753657;Arles;ARLES GARE;REGION PROVENCE ALPES COTE D'AZUR;Bouches-du-Rhône;43.684853;4.632030
87753558;Sausset-les-Pins;SAUSSET LES PINS GARE;REGION PROVENCE ALPES COTE D'AZUR;Bouches-du-Rhône;43.332864;5.110001
87753491;Croix Sainte;CROIX SAINTE GARE;REGION PROVENCE ALPES COTE D'AZUR;Bouches-du-Rhône;43.4088317;5.0196445
87753459;Port-de-Bouc;PORT DE BOUC GARE;REGION PROVENCE ALPES COTE D'AZUR;Bouches-du-Rhône;43.4071317;4.9846006
87753202;Saint-Chamas;SAINT CHAMAS GARE;REGION PROVENCE ALPES COTE D'AZUR;Bouches-du-Rhône;43.5511577;5.0402963
87753004;Miramas;MIRAMAS GARE;REGION PROVENCE ALPES COTE D'AZUR;Bouches-du-Rhône;43.580704;5.000264
87751701;Saint-Marcel;SAINT MARCEL GARE;REGION PROVENCE ALPES COTE D'AZUR;Bouches-du-Rhône;43.28818;5.4671155
87751602;L'Estaque;L ESTAQUE GARE;REGION PROVENCE ALPES COTE D'AZUR;Bouches-du-Rhône;43.363628;5.3213598
87751438;Simiane-Collongue;SIMIANE GARE;REGION PROVENCE ALPES COTE D'AZUR;Bouches-du-Rhône;43.434747;5.426148
87751420;Gardanne;GARDANNE GARE;REGION PROVENCE ALPES COTE D'AZUR;Bouches-du-Rhône;43.455992;5.463332
87751370;Meyrargues;MEYRARGUES GARE;REGION PROVENCE ALPES COTE D'AZUR;Bouches-du-Rhône;43.6440076;5.5395738
87751321;Manosque - Gréoux-les-Bains;MANOSQUE GREOUX LES BAINS GARE;REGION PROVENCE ALPES COTE D'AZUR;Alpes-de-Haute-Provence;43.8231945;5.7933241
87751206;Sisteron;SISTERON GARE;REGION PROVENCE ALPES COTE D'AZUR;Alpes-de-Haute-Provence;44.1902025;5.9465888
87747519;Le Pont-de-Claix;PONT DE CLAIX GARE;REGION ALPES;Isère;45.1251549;5.6998669
87747287;Voiron;VOIRON GARE;REGION ALPES;Isère;45.364037;5.595054
87746875;Vallorcine;VALLORCINE GARE;REGION ALPES;Haute-Savoie;46.0324983;6.9326694
87746768;Les Bossons;LES BOSSONS GARE;REGION ALPES;Haute-Savoie;45.9067455;6.8391969
87746750;Taconnaz;TACONNAZ HALTE;REGION ALPES;Haute-Savoie;45.8992065;6.8258755
87746701;Chedde;CHEDDE GARE;REGION ALPES;Haute-Savoie;45.9263464;6.7197662
87746248;Groisy - Thorens-Glières;GROISY THORENS LA CAILLE GARE;REGION ALPES;Haute-Savoie;46.0111205;6.17568
87746115;Albens;ALBENS GARE;REGION ALPES;Savoie;45.785946;5.9483418
87745679;Évian-les-Bains;EVIAN LES BAINS P GARE;REGION ALPES;Haute-Savoie;46.397915;6.577457
87745588;Machilly;MACHILLY P GARE;REGION ALPES;Haute-Savoie;46.2512825;6.3282335
87745380;Pougny - Chancy;POUGNY CHANCY GARE;REGION ALPES;Ain;46.1446674;5.9613614
87745000;Bellegarde-sur-Valserine;BELLEGARDE (AIN) GARE;REGION ALPES;Ain;46.109425;5.823483
87743757;Tenay - Hauteville;TENAY HAUTEVILLE GARE;REGION ALPES;Ain;45.9222096;5.5016101
87743328;Villereversure;VILLEREVERSURE GARE;REGION ALPES;Ain;46.1944145;5.3977089
87741777;Landry;LANDRY GARE;REGION ALPES;Savoie;45.5741713;6.7338182
87741645;Albertville;ALBERTVILLE GARE;REGION ALPES;Savoie;45.672977;6.383167
87741504;Virieu-le-Grand - Belley;VIRIEU LE GRAND BELLEY GARE;REGION ALPES;Ain;45.8482817;5.6536162
87741496;Les Abrets - Fitilieu;LES ABRETS FITILIEU GARE;REGION ALPES;Isère;45.5421091;5.5754876
87741470;Le Pont-de-Beauvoisin;PONT DE BEAUVOISIN GARE;REGION ALPES;Isère;45.524636;5.680772
87741447;La Bridoire;;;;;
87741421;Aiguebelette-le-Lac;AIGUEBELETTE LE LAC GARE;REGION ALPES;Savoie;45.5363048;5.8131468
87741132;Aix-les-Bains le Revard;AIX LES BAINS LE REVARD GARE;REGION ALPES;Savoie;45.688161;5.909371
87741116;Chindrieux;CHINDRIEUX GARE;REGION ALPES;Savoie;45.8034376;5.8468876
87734723;Vorey;VOREY GARE;REGION AUVERGNE;Haute-Loire;45.1829093;3.911422
87734442;Lezoux;LEZOUX GARE;REGION AUVERGNE;Puy-de-Dôme;45.8212175;3.385986
87734087;Pont-du-Château;;;;;
87734343;Chapeauroux;CHAPEAUROUX GARE;REGION AUVERGNE;Lozère;44.8380008;3.741923
87734269;Brioude;BRIOUDE GARE;REGION AUVERGNE;Haute-Loire;45.3006493;3.3786344
87734251;Arvant;ARVANT GARE;REGION AUVERGNE;Haute-Loire;45.3653797;3.3106747
87734244;Brassac-les-Mines - Sainte-Florine;BRASSAC LES MINES STE FLORINE GARE;REGION AUVERGNE;Puy-de-Dôme;45.414246;3.330167
87734087;Pont-du-Château;;REGION AUVERGNE;Puy-de-Dôme;45.7885543;3.2377829
87731828;Lachaud Curmilhac;LACHAUD CURMILHAC GARE;REGION AUVERGNE;Haute-Loire;45.1228045;3.6104913
87726901;Saint-Étienne Carnot;SAINT ETIENNE CARNOT GARE;REGION RHONE-ALPES;Loire;45.446976;4.385317
87726851;Saint-Jodard;SAINT MARTIN SAIL LES BAINS GARE;REGION RHONE-ALPES;Loire;45.8857125;4.125231
87726828;Le Coteau;LE COTEAU P GARE;REGION RHONE-ALPES;Loire;46.023984;4.086248
87726760;Aurec-sur-Loire;AUREC GARE;REGION AUVERGNE;Haute-Loire;45.3711611;4.1983439
87726729;Firminy;FIRMINY P GARE;REGION RHONE-ALPES;Loire;45.391625;4.286430
87726703;La Ricamarie;LA RICAMARIE P GARE;REGION RHONE-ALPES;Loire;45.4041516;4.360686
87726331;Rive-de-Gier;RIVE DE GIER GARE;REGION RHONE-ALPES;Loire;45.524324;4.606648
87726232;La Fouillouse;LA FOUILLOUSE GARE;REGION RHONE-ALPES;Loire;45.4977675;4.3170839
87726208;Veauche - Saint-Galmier;SAINT GALMIER VEAUCHE GARE;REGION RHONE-ALPES;Loire;45.565928;4.293438
87725895;Échirolles;ECHIROLLES HALTE;REGION ALPES;Isère;45.153022;5.718943
87725812;St Jean sur Veyle;;;;;
87725721;Pontanevaux;PONTANEVAUX LA CHAPELLE GARE;REGION BOURGOGNE FRANCHE-COMTE;Saône-et-Loire;46.2130321;4.7728891
87725689;Mâcon;MACON GARE;REGION BOURGOGNE FRANCHE-COMTE;Saône-et-Loire;46.302572;4.824887
87723767;Marlieux - Châtillon;MARLIEUX CHATILLON GARE;REGION RHONE-ALPES;Ain;46.0638765;5.0731097
87723759;Villars-les-Dombes;VILLARS LES DOMBES GARE;REGION RHONE-ALPES;Ain;46.004206;5.028404
87723734;Saint-André-de-Corcy;SAINT ANDRE DE CORCY GARE;REGION RHONE-ALPES;Ain;45.925911;4.948846
87723577;La Valbonne;LA VALBONNE GARE;REGION RHONE-ALPES;Ain;45.849225;5.124911
87723361;Chandieu Toussieu;;;;;
87723197;Lyon Part Dieu;LYON PART DIEU GARE TGV;REGION RHONE-ALPES;Rhône;45.760559;4.859355
87722579;Estressin;ESTRESSIN GARE;REGION RHONE-ALPES;Isère;45.540285;4.868273
87722546;Sérézin-du-Rhône;SEREZIN DE LA TOUR EX GARE;REGION RHONE-ALPES;Rhône;45.627160;4.818060
87722264;Vernaison;VERNAISON GARE;REGION RHONE-ALPES;Rhône;45.6456478;4.8132908
87721829;Chamelet;CHAMELET GARE;REGION RHONE-ALPES;Rhône;45.9816414;4.5069346
87721753;Châtillon d'Azergues;CHATILLON D AZERGUES GARE;REGION RHONE-ALPES;Rhône;45.8751815;4.6451164
87721746;Civrieux-d'Azergues;CIVRIEUX D AZERGUES GARE;REGION RHONE-ALPES;Rhône;45.8591831;4.7182413
87721563;Fleurieux-sur-l'Arbresle;FLEURIEUX SUR L ARBRESLE GARE;REGION RHONE-ALPES;Rhône;45.8449944;4.6603815
87721555;Lentilly;LENTILLY GARE;REGION RHONE-ALPES;Rhône;45.821630;4.667103
87721530;Charbonnières-les-Bains;CHARBONNIERES LES BAINS GARE;REGION RHONE-ALPES;Rhône;45.782142;4.735912
87721480;Dardilly Les Mouilles;;REGION RHONE-ALPES;Rhône;45.7967409;4.7600288
87721456;Saint-Romain-de-Popey;SAINT ROMAIN DE POPEY GARE;REGION RHONE-ALPES;Rhône;45.8616053;4.5423351
87721415;Chazay - Marcilly;CHAZAY MARCILLY GARE;REGION RHONE-ALPES;Rhône;45.8729618;4.7252221
87721290;Quincieux;QUINCIEUX TREVOUX GARE;REGION RHONE-ALPES;Rhône;45.9068815;4.7785643
87721266;Albigny - Neuville;VILLEVERT NEUVILLE GARE;REGION RHONE-ALPES;Rhône;45.874921;4.832874
87721225;Collonges - Fontaines;COLLONGES FONTAINES GARE;REGION RHONE-ALPES;Rhône;45.8291102;4.8466136
87721159;Lyon Saint-Paul;LYON ST PAUL GARE;REGION RHONE-ALPES;Rhône;45.766010;4.827057
87718841;Arc-et-Senans;ARC ET SENANS GARE;REGION BOURGOGNE FRANCHE-COMTE;Doubs;47.0303516;5.7767843
87718528;L'Hôpital-du-Grosbois;L HOPITAL DU GROS BOIS GARE;REGION BOURGOGNE FRANCHE-COMTE;Doubs;47.1691016;6.2130861
87718510;Mamirolle;MAMIROLLE GARE;REGION BOURGOGNE FRANCHE-COMTE;Doubs;47.1998712;6.1617411
87718429;Deluz;DELUZ GARE;REGION BOURGOGNE FRANCHE-COMTE;Doubs;47.2925132;6.199733
87718411;Novillars;NOVILLARS GARE;REGION BOURGOGNE FRANCHE-COMTE;Doubs;47.2839618;6.1327011
87718312;Dannemarie - Velesmes;DANNEMARIE VELESMES GARE;REGION BOURGOGNE FRANCHE-COMTE;Doubs;47.2038599;5.8738348
87718304;Franois;FRANOIS GARE;REGION BOURGOGNE FRANCHE-COMTE;Doubs;47.2273609;5.937498
87718130;Liesle;LIESLE GARE;REGION BOURGOGNE FRANCHE-COMTE;Doubs;47.0587683;5.8208121
87715417;Saint-Laurent-en-Grandvaux;SAINT LAURENT (JURA) GARE;REGION BOURGOGNE FRANCHE-COMTE;Jura;46.5747975;5.9512119
87715383;Chaux-des-Crotenay;LA CHAUX DES CROTENAY GARE;REGION BOURGOGNE FRANCHE-COMTE;Jura;46.6545926;5.9438595
87715151;Sainte-Colombe;SAINTE COLOMBE HALTE;REGION BOURGOGNE FRANCHE-COMTE;Doubs;46.879207;6.2659748
87713834;Saint-Julien - Clénay;SAINT JULIEN CLENAY GARE;REGION BOURGOGNE FRANCHE-COMTE;Côte-d'Or;47.4060132;5.1281864
87713644;Brazey-en-Plaine;BRAZEY EN PLAINE GARE;REGION BOURGOGNE FRANCHE-COMTE;Côte-d'Or;47.1314549;5.2121276
87713636;Aiserey;AISEREY GARE;REGION BOURGOGNE FRANCHE-COMTE;Côte-d'Or;47.170501;5.1582447
87713073;Blaisy-Bas;BLAISY BAS GARE;REGION BOURGOGNE FRANCHE-COMTE;Côte-d'Or;47.3734427;4.7410755
87712604;Ouges;OUGES GARE;REGION BOURGOGNE FRANCHE-COMTE;Côte-d'Or;47.2559157;5.0727895
87696534;Luzy;LUZY (NIEVRE) GARE;REGION AUVERGNE;Nièvre;46.7940793;3.9693245
87696484;Decize;DECIZE GARE;REGION AUVERGNE;Nièvre;46.837362;3.467274
87696302;Chantenay-Saint-Imbert;CHANTENAY ST IMBERT GARE;REGION AUVERGNE;Nièvre;46.7283203;3.1720842
87696229;Fourchambault;FOURCHAMBAULT GARE;REGION AUVERGNE;Nièvre;47.0189684;3.0873673
87696088;Briare;BRIARE GARE;REGION DE PARIS-SUD-EST;Loiret;47.6464312;2.7337154
87694737;La Clayette - Baudemont;LA CLAYETTE BAUDEMONT GARE;REGION BOURGOGNE FRANCHE-COMTE;Saône-et-Loire;46.2881469;4.2984195
87694596;Brion - Laizy;BRION LAIZY P GARE;REGION BOURGOGNE FRANCHE-COMTE;Saône-et-Loire;46.9085776;4.2069898
87694448;La Roche-en-Brenil;;;Côte-d'Or;;
87694364;Saint-Léger-sur-Dheune;SAINT LEGER SUR DHEUNE GARE;REGION BOURGOGNE FRANCHE-COMTE;Saône-et-Loire;46.8484526;4.6286039
87691394;La Marche;LA MARCHE HALTE;REGION AUVERGNE;Nièvre;47.1396975;3.0395468
87686006;Paris Gare de Lyon Hall 1 & 2;PARIS LYON GARE;REGION DE PARIS-SUD-EST;Paris;48.844888;2.373520
87684415;Malesherbes;MALESHERBES GARE;REGION DE PARIS-SUD-EST;Loiret;48.2934325;2.4012177
87684290;Gien;GIEN GARE;REGION DE PARIS-SUD-EST;Loiret;47.699088;2.636205
87684274;Nogent-sur-Vernisson;NOGENT SUR VERNISSON GARE;REGION DE PARIS-SUD-EST;Loiret;47.8527938;2.7375773
87684233;Dordives;DORDIVES GARE;REGION DE PARIS-SUD-EST;Loiret;48.1471796;2.7628787
87684191;Bagneaux-sur-Loing;BAGNEAUX SUR LOING GARE;REGION DE PARIS-SUD-EST;Seine-et-Marne;48.2304802;2.7033327
87683789;Avallon;AVALLON GARE;REGION DE PARIS-SUD-EST;Yonne;47.4957553;3.9124463
87683706;Voutenay;;;Yonne;47.5613477;3.7803454
87683656;Accolay;;;Yonne;;
87683557;Monéteau - Gurgy;MONETEAU GURGY GARE;REGION DE PARIS-SUD-EST;Yonne;47.8507856;3.5798071
87682443;Vulaines-sur-Seine - Samoreau;VULAINES SUR SEINE SAMOREAU GARE;REGION DE PARIS-SUD-EST;Seine-et-Marne;48.4305468;2.7531008
87682278;Moret - Veneux-les-Sablons;MORET VENEUX LES SABLONS GARE;REGION DE PARIS-SUD-EST;Seine-et-Marne;48.37838;2.79941
87682187;Savigny-le-Temple - Nandy;SAVIGNY BOIS D ARQUEIL GARE;REGION DE PARIS-SUD-EST;Seine-et-Marne;48.595519;2.583678
87682161;Cesson;CESSON GARE;REGION DE PARIS-SUD-EST;Seine-et-Marne;48.56563;2.59380
87681619;Villabé;VILLABE GARE;REGION DE PARIS-SUD-EST;Essonne;48.592637;2.461572
87681486;Maisse;MAISSE GARE;REGION DE PARIS-SUD-EST;Essonne;48.393040;2.393120
87681411;Mennecy;MENNECY GARE;REGION DE PARIS-SUD-EST;Essonne;48.5709075;2.4331650
87681247;Le Vert de Maisons;LE VERT DE MAISONS P GARE;REGION DE PARIS-SUD-EST;Val-de-Marne;48.78934;2.43148
87681155;Maisons-Alfort - Alfortville;MAISONS ALFORT ALFORTVILLE P GARE;REGION DE PARIS-SUD-EST;Val-de-Marne;48.802071;2.426977
87677104;Les Deux Jumeaux;HENDAYE PLAGE GARE;REGION POITOU-CHARENTES AQUITAINE;Pyrénées-Atlantiques;43.3699568;-1.7643532
87673673;Louhossoa;;;Pyrénées-Atlantiques;43.3057578;-1.3624626
87673319;Ondres;ONDRES GARE;REGION POITOU-CHARENTES AQUITAINE;Landes;43.5685809;-1.4571793
87673202;Dax;DAX P GARE;REGION POITOU-CHARENTES AQUITAINE;Landes;43.720472;-1.050301
87672725;Oloron-Sainte-Marie;OLORON STE MARIE GARE;REGION POITOU-CHARENTES AQUITAINE;Pyrénées-Atlantiques;43.1947669;-0.6122826
87672386;Urt;URT GARE;REGION POITOU-CHARENTES AQUITAINE;Pyrénées-Atlantiques;43.4993785;-1.3005564
87672212;Artix;ARTIX GARE;REGION POITOU-CHARENTES AQUITAINE;Pyrénées-Atlantiques;43.3931062;-0.5701881
87672113;Montaut Bétharram;MONTAUT BETHARRAM GARE;REGION POITOU-CHARENTES AQUITAINE;Pyrénées-Atlantiques;43.1269731;-0.1982813
87671487;Ygos-Saint-Saturnin;YGOS GARE;REGION POITOU-CHARENTES AQUITAINE;Landes;43.9781851;-0.7361528
87671313;Ossun;OSSUN GARE;REGION MIDI PYRENEES;Hautes-Pyrénées;43.1833684;-0.0214839
87671172;Tournay;TOURNAY (HAUTES PYRENEES) GARE;REGION MIDI PYRENEES;Hautes-Pyrénées;43.1836066;0.2389703
87671156;Capvern;CAPVERN GARE;REGION MIDI PYRENEES;Hautes-Pyrénées;43.1033454;0.3296393
87645176;Pers;PERS GARE;REGION AUVERGNE;Cantal;44.887025;2.2403887
87645168;Maurs;MAURS (CANTAL) GARE;REGION AUVERGNE;Cantal;44.7061543;2.1995656
87645119;Viescamp sous Jallès;;;;;
87641449;Durtol - Nohanent;DURTOL NOHANENT GARE;REGION AUVERGNE;Puy-de-Dôme;45.7947707;3.048557
87641423;Volvic;VOLVIC GARE;REGION AUVERGNE;Puy-de-Dôme;45.864715;3.0031455
87641274;Laqueuille;;;Puy-de-Dôme;45.6468205;2.7046524
87641043;Lapeyrouse;LAPEYROUSE GARE;REGION AUVERGNE;Puy-de-Dôme;46.2267825;2.893393
87641001;Montluçon;MONTLUCON VILLE GARE;REGION AUVERGNE;Allier;46.338101;2.596159
87618215;Villenouvelle;VILLENOUVELLE (HAUTE GARONNE) GARE;REGION MIDI PYRENEES;Haute-Garonne;43.4330358;1.661081
87615757;Baraqueville Carcenac Peyralès;BARAQUEVILLE CARCENAC PEYRALES GARE;REGION MIDI PYRENEES;Aveyron;44.2704368;2.4275453
87615674;Tanus;TANUS GARE;REGION MIDI PYRENEES;Tarn;44.1003384;2.3151214
87615625;Carmaux;CARMAUX GARE;REGION MIDI PYRENEES;Tarn;44.048782;2.152401
87615542;Mazamet;MAZAMET P GARE;REGION MIDI PYRENEES;Tarn;43.4977847;2.3747346
87615484;Damiatte - Saint-Paul;DAMIATTE ST PAUL GARE;REGION MIDI PYRENEES;Tarn;43.6566194;1.9733585
87615377;Gragnague;GRAGNAGUE GARE;REGION MIDI PYRENEES;Haute-Garonne;43.696179;1.567731
87615344;Saint-Sulpice (Tarn);SAINT SULPICE (TARN) GARE;REGION MIDI PYRENEES;Tarn;43.775073;1.680702
87615161;Limoux;LIMOUX GARE;REGION LANGUEDOC-ROUSSILLON;Aude;43.0563831;2.2228288
87615112;Lézignan-Corbières;LEZIGNAN AUDE GARE;REGION LANGUEDOC-ROUSSILLON;Aude;43.1999609;2.7699635
87615005;Albi;ALBI VILLE GARE;REGION MIDI PYRENEES;Tarn;43.922380;2.137958
87613661;Viviez - Decazeville;VIVIEZ DECAZEVILLE GARE;REGION MIDI PYRENEES;Aveyron;44.5555678;2.2182582
87613257;Saint-Christophe-Vallon;SAINT CHRISTOPHE (AVEYRON) GARE;REGION MIDI PYRENEES;Aveyron;44.464619;2.4077585
87613042;Rocamadour - Padirac;ROC AMADOUR PADIRAC GARE;REGION MIDI PYRENEES;Lot;44.8183562;1.6573487
87611848;Montrabé;MONTRABE GARE;REGION MIDI PYRENEES;Haute-Garonne;43.6450204;1.5240482
87611764;Aubiet;AUBIET GARE;REGION MIDI PYRENEES;Gers;43.6502068;0.7891179
87611723;Baziège;BAZIEGE GARE;REGION MIDI PYRENEES;Haute-Garonne;43.4535696;1.6205019
87611665;Castelnau-d'Estrétefonds;CASTELNAU D ESTRETEFONDS GARE;REGION MIDI PYRENEES;Haute-Garonne;43.786196;1.341761
87611574;Les Cabannes;LES CABANNES GARE;REGION MIDI PYRENEES;Ariège;42.7862854;1.6862985
87611368;Saverdun;SAVERDUN GARE;REGION MIDI PYRENEES;Ariège;43.239357;1.570616
87611350;Le Vernet d'Ariège;VERNET D ARIEGE GARE;REGION MIDI PYRENEES;Ariège;43.1894138;1.6116214
87611343;Pamiers;PAMIERS GARE;REGION MIDI PYRENEES;Ariège;43.116207;1.619451
87611301;Saint-Agne;SAINT AGNE GARE;REGION MIDI PYRENEES;Haute-Garonne;43.579674;1.450209
87611137;Saint-Gaudens;SAINT GAUDENS GARE;REGION MIDI PYRENEES;Haute-Garonne;43.105034;0.729104
87611103;Saint-Martory;SAINT MARTORY GARE;REGION MIDI PYRENEES;Haute-Garonne;43.1385721;0.934859
87611053;Longages - Noé;LONGAGES NOE GARE;REGION MIDI PYRENEES;Haute-Garonne;43.3563239;1.2519529
87608802;Créteil Pompadour;CRETEIL POMPADOUR GARE;REGION DE PARIS-SUD-EST;Val-de-Marne;48.7715403;2.4352763
87597708;Busseau sur Creuse;BUSSEAU SUR CREUSE GARE;REGION LIMOUSIN;Creuse;46.1230257;2.0229244
87597625;Marsac;MARSAC (CREUSE) GARE;REGION LIMOUSIN;Creuse;46.0941348;1.585556
87597120;Argenton-sur-Creuse;ARGENTON SUR CREUSE P GARE;REGION LIMOUSIN;Indre;46.592248;1.518305
87597112;Chabenet;CHABENET GARE;REGION LIMOUSIN;Indre;46.6265259;1.5076773
87595876;Belvès;BELVES GARE;REGION POITOU-CHARENTES AQUITAINE;Dordogne;44.7773978;1.0118831
87595504;Périgueux Saint-Georges;PERIGUEUX ST GEORGES GARE;REGION POITOU-CHARENTES AQUITAINE;Dordogne;45.1783328;0.7336349
87595272;Neuvic;NEUVIC (DORDOGNE) GARE;REGION POITOU-CHARENTES AQUITAINE;Dordogne;45.0999632;0.4450162
87595223;Razac-sur-l'Isle;RAZAC GARE;REGION POITOU-CHARENTES AQUITAINE;Dordogne;45.1659287;0.5992849
87594796;Laval-de-Cère;LAVAL DE CERE GARE;REGION LIMOUSIN;Lot;44.9512118;1.9317113
87594739;Vayrac;VAYRAC GARE;;Lot;44.9501471;1.7062871
87594499;Tulle;TULLE GARE;REGION LIMOUSIN;Corrèze;45.258725;1.756467
87594465;Aubazines - Saint-Hilaire;AUBAZINE ST HILAIRE GARE;REGION LIMOUSIN;Corrèze;45.1816781;1.6412346
87594291;Aix la Marsalouse;;;Corrèze;;
87594093;Ussel;USSEL GARE;REGION LIMOUSIN;Corrèze;45.5574383;2.3143439
87592873;Chabanais;CHABANAIS GARE;REGION POITOU-CHARENTES AQUITAINE;Charente;45.8726435;0.716894
87592675;Verneuil-sur-Vienne;VERNEUIL SUR VIENNE GARE;REGION LIMOUSIN;Haute-Vienne;45.837848;1.1126156
87592543;Le Dorat;LE DORAT GARE;REGION LIMOUSIN;Haute-Vienne;46.2110908;1.0793364
87592352;Bersac-sur-Rivalier;BERSAC GARE;REGION LIMOUSIN;Haute-Vienne;46.0837459;1.4321682
87592345;Saint-Sulpice-Laurière;SAINT SULPICE LAURIERE GARE;REGION LIMOUSIN;Haute-Vienne;46.0469183;1.4762218
87592287;Saint-Germain-les-Belles;SAINT GERMAIN LES BELLES GARE;REGION LIMOUSIN;Haute-Vienne;45.6098703;1.4800397
87592246;Solignac - Le Vigen;SOLIGNAC LE VIGEN P GARE;REGION LIMOUSIN;Haute-Vienne;45.7561586;1.2856817
87592121;Eymoutiers Vassivière;EYMOUTIERS GARE;REGION LIMOUSIN;Haute-Vienne;45.7397876;1.7412237
87590364;La Chapelle - Aulnay;;REGION PAYS DE LA LOIRE;Loire-Atlantique;47.3087224;-1.5414844
87590349;Babinière;;REGION PAYS DE LA LOIRE;Loire-Atlantique;47.2591762;-1.5452842
87586693;Aiguillon;AIGUILLON GARE;REGION POITOU-CHARENTES AQUITAINE;Lot-et-Garonne;44.2987224;0.3352388
87586545;Marmande;MARMANDE GARE;REGION POITOU-CHARENTES AQUITAINE;Lot-et-Garonne;44.503019;0.168044
87586412;Laroque-Timbaut;LAROQUE GARE;REGION POITOU-CHARENTES AQUITAINE;Lot-et-Garonne;44.2875163;0.7497189
87586107;Port-Sainte-Marie;PORT STE MARIE GARE;REGION POITOU-CHARENTES AQUITAINE;Lot-et-Garonne;44.2504383;0.3905059
87584607;Saint-Médard-de-Guizières;SAINT MEDARD DE GUIZIERES GARE;REGION POITOU-CHARENTES AQUITAINE;Gironde;45.0155723;-0.0488253
87583823;Luxé;LUXE P GARE;REGION POITOU-CHARENTES AQUITAINE;Charente;45.8873947;0.1094107
87583468;Roumazières-Loubert;ROUMAZIERES LOUBERT GARE;REGION POITOU-CHARENTES AQUITAINE;Charente;45.8893483;0.5789743
87583427;La Rochefoucauld;LA ROCHEFOUCAULD GARE;REGION POITOU-CHARENTES AQUITAINE;Charente;45.7401921;0.3895946
87582858;Gironde-sur-Dropt;GIRONDE GARE;REGION POITOU-CHARENTES AQUITAINE;Gironde;44.583292;-0.0920127
87582767;Preignac;PREIGNAC GARE;REGION POITOU-CHARENTES AQUITAINE;Gironde;44.5783064;-0.3022296
87582478;Biganos Facture;FACTURE GARE;REGION POITOU-CHARENTES AQUITAINE;Gironde;44.637384;-0.96621
87581850;Bassens;BASSENS VILLE GARE;REGION POITOU-CHARENTES AQUITAINE;Gironde;44.9012933;-0.5223144
87581793;Pessac Alouette;ALOUETTE FRANCE GARE;REGION POITOU-CHARENTES AQUITAINE;Gironde;44.793355;-0.65965
87581595;Cenon;CENON HALTE;REGION POITOU-CHARENTES AQUITAINE;Gironde;44.8563465;-0.5336487
87581371;Soulac-sur-Mer;SOULAC SUR MER GARE;REGION POITOU-CHARENTES AQUITAINE;Gironde;45.5081769;-1.1175894
87581215;Margaux;MARGAUX GARE;REGION POITOU-CHARENTES AQUITAINE;Gironde;45.0358307;-0.6854145
87580340;Arenc Euroméditerranée;MARSEILLE MARITIME ARENC GARE;REGION PROVENCE ALPES COTE D'AZUR;Bouches-du-Rhône;43.3132339;5.3676221
87576447;Bengy-sur-Craon;BENGY GARE;REGION CENTRE;Cher;47.0004698;2.7492361
87576363;Luçay-le-Mâle;;;Indre;47.1329836;1.4358257
87576306;Bigny;BIGNY GARE;REGION CENTRE;Cher;46.8015763;2.368638
87576108;Foëcy;FOECY GARE;REGION CENTRE;Cher;47.1756905;2.1625062
87576090;Vierzon Forges;VIERZON FORGES GARE;REGION CENTRE;Cher;47.2099931;2.0994545
87576009;Vierzon;VIERZON VILLE GARE;REGION CENTRE;Cher;47.226497;2.059822
87575290;Vivonne;VIVONNE GARE;REGION POITOU-CHARENTES AQUITAINE;Vienne;46.4266355;0.2653156
87575076;Port-de-Piles;PORT DE PILES P GARE;REGION CENTRE;Indre-et-Loire;47.0102599;0.5989179
87575043;Villeperdue;VILLEPERDUE GARE;REGION CENTRE;Indre-et-Loire;47.2020438;0.6336449
87574855;Montrichard;MONTRICHARD GARE;REGION CENTRE;Loir-et-Cher;47.3437658;1.1717596
87574129;Saint-Ay;SAINT AY GARE;REGION CENTRE;Loiret;47.863133;1.7499597
87571844;Savonnières;SAVONNIERES GARE;REGION CENTRE;Indre-et-Loire;47.3605797;0.5441817
87571802;La Chapelle-sur-Loire;LA CHAPELLE SUR LOIRE GARE;REGION CENTRE;Indre-et-Loire;47.251227;0.2184812
87571687;Chinon;CHINON GARE;REGION CENTRE;Indre-et-Loire;47.163047;0.251538
87571513;La Membrolle-sur-Choisille;LA MEMBROLLE SUR CHOISILLE GARE;REGION CENTRE;Indre-et-Loire;47.4313179;0.6407872
87571471;Loches;LOCHES GARE;REGION CENTRE;Indre-et-Loire;47.130464;1.000467
87571448;Courcay - Tauxigny;COURCAY TAUXIGNY HALTE;REGION CENTRE;Indre-et-Loire;47.2377076;0.867867
87571430;Cormery;CORMERY P GARE;REGION CENTRE;Indre-et-Loire;47.262540;0.833953
87571414;Veigné;VEIGNE HALTE;REGION CENTRE;Indre-et-Loire;47.2915255;0.7348815
87571240;Saint-Pierre-des-Corps;SAINT PIERRE DES CORPS GARE;REGION CENTRE;Indre-et-Loire;47.386099;0.723550
87571216;Vendôme - Villiers-sur-Loir TGV;VENDOME VILLIERS SUR LOIR TGVA P GARE;REGION DE PARIS RIVE GAUCHE;Loir-et-Cher;47.821937;1.021143
87566919;Lentilly Charpenay;CHARPENAY GARE;REGION RHONE-ALPES;Rhône;45.8165247;4.6824009
87546317;Chemin d'Antony;CHEMIN D ANTONY GARE;REGION DE PARIS RIVE GAUCHE;Hauts-de-Seine;48.7481430;2.3126207
87546291;Rungis La Fraternelle;RUNGIS LA FRATERNELLE GARE;REGION DE PARIS RIVE GAUCHE;Val-de-Marne;48.74032;2.35298
87545491;Breuillet Village;BREUILLET VILLAGE GARE;REGION DE PARIS RIVE GAUCHE;Essonne;48.564776;2.171207
87545178;Bouray;BOURAY GARE;REGION DE PARIS RIVE GAUCHE;Essonne;48.533149;2.290596
87545160;Lardy;LARDY GARE;REGION DE PARIS RIVE GAUCHE;Essonne;48.520639;2.255739
87543165;Salbris;SALBRIS GARE;REGION CENTRE;Loir-et-Cher;47.42522;2.04778
87543041;Chevilly;CHEVILLY GARE;REGION CENTRE;Loiret;48.0266215;1.8793013
87543009;Orléans;ORLEANS GARE;REGION CENTRE;Loiret;47.907960;1.904666
87534339;Mulhouse Musées;;REGION ALSACE;Haut-Rhin;47.750185;7.2984302
87491290;Loulay;LOULAY GARE;REGION POITOU-CHARENTES AQUITAINE;Charente-Maritime;46.0435165;-0.5017525
87491282;Sainte-Eulalie - Carbon-Blanc;SAINTE EULALIE CARBON BLANC GARE;REGION POITOU-CHARENTES AQUITAINE;Gironde;44.8978327;-0.4939737
87491217;Cavignac;CAVIGNAC GARE;REGION POITOU-CHARENTES AQUITAINE;Gironde;45.105163;-0.382243
87491159;Fontaines-d'Ozillac;;;Charente-Maritime;45.3872162;-0.3836092
87491100;Pons;PONS GARE;REGION POITOU-CHARENTES AQUITAINE;Charente-Maritime;45.5780767;-0.5389124
87487892;Saint-Mathurin-sur-Loire;SAINT MATHURIN GARE;REGION PAYS DE LA LOIRE;Maine-et-Loire;47.4122473;-0.3182267
87487603;Saumur;SAUMUR RIVE DROITE GARE;REGION PAYS DE LA LOIRE;Maine-et-Loire;47.26900;-0.07136
87486563;Saint-Hilaire-de-Riez;SAINT HILAIRE DE RIEZ GARE;REGION PAYS DE LA LOIRE;Vendée;46.7166736;-1.9496838
87486449;Les Sables-d'Olonne;LES SABLES D OLONNE GARE;REGION PAYS DE LA LOIRE;Vendée;46.499917;-1.781050
87486308;La Chaize-le-Vicomte;LA CHAIZE LE VICOMTE GARE;REGION PAYS DE LA LOIRE;Vendée;46.676779;-1.2820678
87486258;Luçon;LUCON GARE;REGION PAYS DE LA LOIRE;Vendée;46.4638232;-1.1674217
87485508;La Mothe-Saint-Héray;LA MOTHE ST HERAY GARE;REGION POITOU-CHARENTES AQUITAINE;Deux-Sèvres;46.3807592;-0.1298415
87485474;La Crèche;BRELOUX LA CRECHE GARE;REGION POITOU-CHARENTES AQUITAINE;Deux-Sèvres;46.3604181;-0.2962081
87485342;Beauvoir-sur-Niort;BEAUVOIR SUR NIORT GARE;REGION POITOU-CHARENTES AQUITAINE;Deux-Sèvres;46.1768857;-0.4687544
87485276;Epannes;;;Deux-Sèvres;;
87485250;Mauzé-sur-le-Mignon;MAUZE GARE;REGION POITOU-CHARENTES AQUITAINE;Deux-Sèvres;46.1995881;-0.6737264
87485151;Tonnay-Charente;TONNAY CHARENTE GARE;REGION POITOU-CHARENTES AQUITAINE;Charente-Maritime;45.9433989;-0.8978981
87485110;Châtelaillon-Plage;CHATELAILLON GARE;REGION POITOU-CHARENTES AQUITAINE;Charente-Maritime;46.0783303;-1.0908909
87484139;Le Vieux Briollay;LE VIEUX BRIOLLAY GARE;REGION PAYS DE LA LOIRE;Maine-et-Loire;47.5739696;-0.4829396
87481754;La Baule-Escoublac;LA BAULE ESCOUBLAC GARE;REGION PAYS DE LA LOIRE;Loire-Atlantique;47.288690;-2.389102
87481697;La Baule Les Pins;LA BAULE LES PINS GARE;REGION PAYS DE LA LOIRE;Loire-Atlantique;47.2835196;-2.3648441
87481564;La Chapelle-sur-Erdre;;REGION PAYS DE LA LOIRE;Loire-Atlantique;47.2972029;-1.548012
87481440;Clisson;CLISSON GARE;REGION PAYS DE LA LOIRE;Loire-Atlantique;47.086142;-1.286172
87481432;Gorges;GORGES GARE;REGION PAYS DE LA LOIRE;Loire-Atlantique;47.1001487;-1.3058778
87481390;Challans;CHALLANS GARE;REGION PAYS DE LA LOIRE;Vendée;46.843962;-1.871879
87481218;Port-Saint-Père - Saint-Mars;PORT ST PERE ST MARS GARE;REGION PAYS DE LA LOIRE;Loire-Atlantique;47.1164915;-1.7393069
87481176;Boussay - La Bruffière;BOUSSAY GARE;REGION PAYS DE LA LOIRE;Loire-Atlantique;47.0505741;-1.1828046
87481143;Thouaré-sur-Loire;THOUARE GARE;REGION PAYS DE LA LOIRE;Loire-Atlantique;47.2651143;-1.4409626
87481051;Chantenay;CHANTENAY GARE;REGION PAYS DE LA LOIRE;Loire-Atlantique;47.1971227;-1.5943634
87481036;Rezé Pont Rousseau;REZE PONT ROUSSEAU GARE;REGION PAYS DE LA LOIRE;Loire-Atlantique;47.1932425;-1.5495445
87481002;Nantes;NANTES ORLEANS GARE;REGION PAYS DE LA LOIRE;Loire-Atlantique;47.216148;-1.542356
87478149;Pleudihen-sur-Rance;PLEUDIHEN GARE;REGION BRETAGNE;Côtes-d'Armor;48.4993822;-1.9617515
87478123;Plerguer;PLERGUER GARE;REGION BRETAGNE;Ille-et-Vilaine;48.5314637;-1.8505895
87476770;Drefféac;DREFFEAC P GARE;REGION PAYS DE LA LOIRE;Loire-Atlantique;47.4817568;-2.0503661
87476424;Penthièvre;PENTHIEVRE GARE;REGION BRETAGNE;Morbihan;47.5580254;-3.1330754
87476234;Landévant;LANDEVANT GARE;REGION BRETAGNE;Morbihan;47.759578;-3.1251313
87474239;Landerneau;LANDERNEAU GARE;REGION BRETAGNE;Finistère;48.453572;-4.256528
87474213;Kerhuon;KERHUON GARE;REGION BRETAGNE;Finistère;48.4096627;-4.3882136
87474155;Rosporden;ROSPORDEN GARE;REGION BRETAGNE;Finistère;47.960273;-3.832763
87474015;Dirinon;DIRINON GARE;REGION BRETAGNE;Finistère;48.3926343;-4.2855034
87473876;Frynaudour;FRYNAUDOUR HALTE;REGION BRETAGNE;Côtes-d'Armor;48.7275919;-3.1284527
87473843;Pontrieux;PONTRIEUX GARE;REGION BRETAGNE;Côtes-d'Armor;48.7056437;-3.1574281
87473819;Trégonneau - Squiffiec;TREGONNEAU SQUIFFIEC P GARE;REGION BRETAGNE;Côtes-d'Armor;48.6243578;-3.1742524
87473587;Les Mais;LES MAIS HALTE;REGION BRETAGNE;Côtes-d'Armor;48.4262577;-3.3828609
87473579;Coat Guégan;COAT GUEGANT HALTE;REGION BRETAGNE;Côtes-d'Armor;48.4803156;-3.2738023
87473207;Guingamp;GUINGAMP P GARE;REGION BRETAGNE;Côtes-d'Armor;48.555659;-3.143343
87473199;Plounérin;PLOUNERIN GARE;REGION BRETAGNE;Côtes-d'Armor;48.5816298;-3.5682311
87473140;Châtelaudren - Plouagat;CHATELAUDREN PLOUAGAT GARE;REGION BRETAGNE;Côtes-d'Armor;48.5332189;-2.9746782
87473090;Plestan;PLESTAN GARE;REGION BRETAGNE;Côtes-d'Armor;48.4256462;-2.4424607
87473066;Caulnes;CAULNES GARE;REGION BRETAGNE;Côtes-d'Armor;48.2844264;-2.155593
87473009;Saint-Brieuc;SAINT BRIEUC P GARE;REGION BRETAGNE;Côtes-d'Armor;48.507580;-2.765000
87472605;Thann Centre;;REGION ALSACE;Haut-Rhin;47.8099229;7.101046
87471458;Chevaigné;CHEVAIGNE GARE;REGION BRETAGNE;Ille-et-Vilaine;48.2089042;-1.6307622
87471318;Saint-Armel;SAINT ARMEL GARE;REGION BRETAGNE;Ille-et-Vilaine;48.014405;-1.5948867
87471300;Redon;REDON GARE;REGION BRETAGNE;Ille-et-Vilaine;47.652004;-2.087770
87471102;Breteil;BRETEIL HALTE;REGION BRETAGNE;Ille-et-Vilaine;48.1405713;-1.8972095
87471037;Bruz;BRUZ GARE;REGION BRETAGNE;Ille-et-Vilaine;48.0286;-1.7518088
87448514;Avranches;AVRANCHES GARE;REGION NORMANDIE;Manche;48.6902445;-1.3700755
87447003;Saint-Lô;SAINT LO GARE;REGION NORMANDIE;Manche;49.116975;-1.099525
87444877;Cherbourg-en-Cotentin;CHERBOURG GARE;REGION NORMANDIE;Manche;49.633505;-1.621515
87444208;Mézidon-Canon;MEZIDON GARE;REGION NORMANDIE;Calvados;49.07100;-0.07496
87444182;Frénouville - Cagny;FRENOUVILLE CAGNY GARE;REGION NORMANDIE;Calvados;49.1411192;-0.2603256
87444059;Audrieu;AUDRIEU GARE;REGION NORMANDIE;Calvados;49.2161315;-0.5960138
87444000;Caen;CAEN P GARE;REGION NORMANDIE;Calvados;49.176354;-0.347613
87443648;Vaudagne;;;;;
87440602;ST Joseph le Castellas;;;;;
87439554;Vitrolles Aéroport Marseille Provence;VITROLLES AEROPORT MARSEILLE PROVENCE;REGION PROVENCE ALPES COTE D'AZUR;Bouches-du-Rhône;43.441734;5.237122
87437798;La Rochelle Porte Dauphine;;REGION POITOU-CHARENTES AQUITAINE;Charente-Maritime;46.16755;-1.1518412
87431791;Rougemont Chanteloup;SEVRAN GARE ROUGEMONT CHANTELOUP TRAM TR;REGION DE PARIS-EST;Seine-Saint-Denis;48.930895;2.515020
87417444;Franchet d'Esperey;halte Reims Franchet-d?Esperey TER;REGION CHAMPAGNE-ARDENNE;Marne;49.2425356;4.013869
87415661;Pont-de-l'Arche;PONT DE L ARCHE GARE;REGION NORMANDIE;Eure;49.3170928;1.1596559
87413542;Fécamp;FECAMP GARE;REGION NORMANDIE;Seine-Maritime;49.759277;0.375287
87413351;Bolbec - Nointot;BOLBEC NOINTOT GARE;REGION NORMANDIE;Seine-Maritime;49.5914657;0.48482
87413203;Le Havre Graville;LE HAVRE GRAVILLE GARE;REGION NORMANDIE;Seine-Maritime;49.4998007;0.1608551
87413013;Le Havre;LE HAVRE GARE;REGION NORMANDIE;Seine-Maritime;49.492996;0.125677
87411801;Montville;MONTVILLE GARE;REGION NORMANDIE;Seine-Maritime;49.551284;1.070046
87411272;Pavilly;PAVILLY VILLE/PAVILLY STATION GARES;REGION NORMANDIE;Seine-Maritime;49.563897;0.950644
87411256;Malaunay - Le Houlme;MALAUNAY LE HOULME GARE;REGION NORMANDIE;Seine-Maritime;49.5133331;1.0395776
87396580;Mayet;MAYET GARE;REGION PAYS DE LA LOIRE;Sarthe;47.7601465;0.2659384
87396572;Aubigné-Racan;AUBIGNE RACAN GARE;REGION PAYS DE LA LOIRE;Sarthe;47.686945;0.2657714
87396564;Écommoy;ECOMMOY GARE;REGION PAYS DE LA LOIRE;Sarthe;47.8246286;0.2691867
87396374;Noyen-sur-Sarthe;NOYEN GARE;REGION PAYS DE LA LOIRE;Sarthe;47.8744544;-0.0981755
87396283;Saint-Mars-la-Brière;SAINT MARS LA BRIERE GARE;REGION PAYS DE LA LOIRE;Sarthe;48.0285239;0.3656778
87396077;Vivoin - Beaumont;VIVOIN BEAUMONT GARE;REGION PAYS DE LA LOIRE;Sarthe;48.2302093;0.1447829
87396044;Montbizot;MONTBIZOT GARE;REGION PAYS DE LA LOIRE;Sarthe;48.151513;0.1908607
87396036;La Guierche;LA GUIERCHE GARE;REGION PAYS DE LA LOIRE;Sarthe;48.1138773;0.1931016
87394429;Magny - Blandainville;MAGNY BLANDAINVILLE GARE;REGION DE PARIS RIVE GAUCHE;Eure-et-Loir;48.3342906;1.2811066
87394270;Bretoncelles;BRETONCELLES GARE;REGION DE PARIS RIVE GAUCHE;Orne;48.4326737;0.8923825
87394247;Pontgouin;PONTGOUIN GARE;REGION DE PARIS RIVE GAUCHE;Eure-et-Loir;48.477867;1.1414359
87394221;Courville-sur-Eure;COURVILLE SUR EURE GARE;REGION DE PARIS RIVE GAUCHE;Eure-et-Loir;48.451236;1.234836
87394205;Amilly Ouerray;AMILLY OUERRAY GARE;REGION DE PARIS RIVE GAUCHE;Eure-et-Loir;48.4381825;1.3892882
87394171;La Villette Saint-Prest;LA VILLETTE ST PREST GARE;REGION DE PARIS RIVE GAUCHE;Eure-et-Loir;48.4827197;1.5228734
87394114;Épernon;EPERNON GARE;REGION DE PARIS RIVE GAUCHE;Eure-et-Loir;48.6052471;1.6812578
87393892;Montfort-l'Amaury - Méré;MONTFORT L AMAURY MERE GARE;REGION DE PARIS RIVE GAUCHE;Yvelines;48.80224;1.8153507
87733659;Noisy-le-Roi T13;NOISY LE ROI GARE;REGION DE PARIS SAINT-LAZARE;Yvelines;;
87393595;Verneuil-sur-Avre;VERNEUIL SUR AVRE GARE;REGION DE PARIS RIVE GAUCHE;Eure;48.7424857;0.9291925
87393579;Massy - Palaiseau;MASSY PALAISEAU P GARE;REGION DE PARIS RIVE GAUCHE;Essonne;48.7264211;2.2575281
87393504;Petit Jouy - Les Loges;PETIT JOUY LES LOGES P GARE;REGION DE PARIS RIVE GAUCHE;Yvelines;48.7709430;2.1470148
87393470;Marchezais - Broué;MARCHEZAIS BROUE P GARE;REGION DE PARIS RIVE GAUCHE;Eure-et-Loir;48.7684736;1.513444
87393447;Orgerus - Béhoust;ORGERUS BEHOUST GARE;REGION DE PARIS RIVE GAUCHE;Yvelines;48.8267809;1.7028344
87393405;Fontenay-le-Fleury;FONTENAY LE FLEURY GARE;REGION DE PARIS RIVE GAUCHE;Yvelines;48.8074032;2.0404603
87393298;Le Perray-en-Yvelines;LE PERRAY GARE;REGION DE PARIS RIVE GAUCHE;Yvelines;48.6933406;1.856057
87733089;Saint-Cyr-l'École T13;SAINT CYR P GARE;REGION DE PARIS RIVE GAUCHE;Yvelines;;
87393207;Chaville Rive Gauche;CHAVILLE RIVE GAUCHE GARE;REGION DE PARIS RIVE GAUCHE;Hauts-de-Seine;48.8047497;2.1882472
87393173;Chaville - Vélizy;CHAVILLE VELIZY P GARE;REGION DE PARIS RIVE GAUCHE;Yvelines;48.7998005;2.1845267
87393165;Porchefontaine;PORCHEFONTAINE GARE;REGION DE PARIS RIVE GAUCHE;Yvelines;48.7969381;2.1540156
87393124;Sèvres Rive Gauche;SEVRES RIVE GAUCHE GARE;REGION DE PARIS RIVE GAUCHE;Hauts-de-Seine;48.8214311;2.2147536
87393116;Bellevue;BELLEVUE GARE;REGION DE PARIS RIVE GAUCHE;Hauts-de-Seine;48.8190033;2.2296743
87393108;Meudon;MEUDON GARE;REGION DE PARIS RIVE GAUCHE;Hauts-de-Seine;48.8147527;2.2410999
87393041;Pont de l'Alma;PARIS PONT DE L ALMA GARE;REGION DE PARIS RIVE GAUCHE;Paris;48.8625705;2.3010287
87387159;Conches-en-Ouche;CONCHES GARE;REGION NORMANDIE;Eure;48.9623603;0.9378895
87387092;Bueil;BUEIL GARE;REGION DE PARIS SAINT-LAZARE;Eure;48.9253816;1.4435896
87386664;Les Clairières de Verneuil;VERNOUILLET VERNEUIL GARE;REGION DE PARIS SAINT-LAZARE;Yvelines;48.9922407;1.955265
87386573;Poissy;POISSY GARE;REGION DE PARIS SAINT-LAZARE;Yvelines;48.9329014;2.0413676
87386300;Les Vallées;LES VALLEES GARE;REGION DE PARIS SAINT-LAZARE;Hauts-de-Seine;48.913408;2.257909
87384008;Paris Saint-Lazare;PARIS ST LAZARE GARE;REGION DE PARIS SAINT-LAZARE;Paris;48.876242;2.325331
87382861;Versailles Rive Droite;VERSAILLES RIVE DROITE GARE;REGION DE PARIS SAINT-LAZARE;Yvelines;48.8096525;2.1347523
87733063;Saint-Germain-en-Laye Grande Ceinture T13;SAINT GERMAIN GRANDE CEINTURE GARE;REGION DE PARIS SAINT-LAZARE;;;
87382499;Cergy Saint-Christophe;CERGY ST CHRISTOPHE GARE;REGION DE PARIS SAINT-LAZARE;Val-d'Oise;49.0496151;2.0343975
87382473;L'Étang-la-Ville;L ETANG LA VILLE GARE;REGION DE PARIS SAINT-LAZARE;Yvelines;48.86822;2.0766932
87382465;Marly-le-Roi;MARLY LE ROI GARE;REGION DE PARIS SAINT-LAZARE;Yvelines;48.8713084;2.0965436
87382341;Sèvres - Ville-d'Avray;SEVRES VILLE D AVRAY P GARE;REGION DE PARIS SAINT-LAZARE;Hauts-de-Seine;48.82746;2.20051
87731430;La Défense Grande Arche RER E;LA DEFENSE P GARE;REGION DE PARIS SAINT-LAZARE;Hauts-de-Seine;;
87381889;Herblay;HERBLAY GARE;REGION DE PARIS SAINT-LAZARE;Val-d'Oise;48.99042;2.16208
87381863;Cormeilles-en-Parisis;CORMEILLES EN PARISIS GARE;REGION DE PARIS SAINT-LAZARE;Val-d'Oise;48.96864;2.19358
87381830;Meulan - Hardricourt;MEULAN HARDRICOURT GARE;REGION DE PARIS SAINT-LAZARE;Yvelines;49.00564;1.90213
87381798;Val d'Argenteuil;VAL D ARGENTEUIL GARE;REGION DE PARIS SAINT-LAZARE;Val-d'Oise;48.95042;2.23088
87381459;Conflans Fin d'Oise;CONFLANS FIN D OISE BAS GARE;REGION DE PARIS SAINT-LAZARE;Yvelines;48.98931;2.07465
87381426;Saint-Ouen-l'Aumône Quartier de l'Église;SAINT OUEN L AUMONE (EGLISE) GARE;REGION DE PARIS-NORD;Val-d'Oise;49.03997;2.10369
87381418;Éragny - Neuville;ERAGNY NEUVILLE GARE;REGION DE PARIS SAINT-LAZARE;Val-d'Oise;49.01824;2.09104
87381244;Gisors;GISORS EMBRANCHEMENT GARE;REGION DE PARIS SAINT-LAZARE;Eure;49.28512;1.78455
87381137;Asnières-sur-Seine;ASNIERES GARE;REGION DE PARIS SAINT-LAZARE;Hauts-de-Seine;48.90580;2.28324
87381079;Bois-Colombes;BOIS COLOMBES GARE;REGION DE PARIS SAINT-LAZARE;Hauts-de-Seine;48.91348;2.27256
87381020;Neuilly - Porte Maillot;PARIS NEUILLY PORTE MAILLOT GARE;REGION DE PARIS RIVE GAUCHE;Paris;48.8779830;2.2845160
87381012;Péreire - Levallois;PARIS PEREIRE LEVALLOIS GARE;REGION DE PARIS RIVE GAUCHE;Paris;48.8853581;2.2979465
87366922;Saint-Germain-en-Laye Bel-Air - Fourqueux;SAINT GERMAIN BEL AIR GARE;REGION DE PARIS SAINT-LAZARE;Yvelines;48.89494;2.07050
87354589;Saint-Sébastien Pas Enchantés;LES PAS ENCHANTES HALTE;REGION PAYS DE LA LOIRE;Loire-Atlantique;47.2069513;-1.5109069
87353573;Le Toec;LE TOEC HALTE;REGION MIDI PYRENEES;Haute-Garonne;43.5956037;1.4014496
87352047;Champagnole Paul-Émile Victor;CHAMPAGNOLE HALTE PAUL EMILE VICTOR;REGION BOURGOGNE FRANCHE-COMTE;Jura;46.742483;5.9198128
87345595;Wambaix;WAMBAIX HALTE;REGION NORD PAS DE CALAIS;Nord;50.1338767;3.3114074
87345587;Cattenières;CATTENIERES HALTE;REGION NORD PAS DE CALAIS;Nord;50.1280738;3.3337877
87345496;Escaudœuvres;ESCAUDOEUVRES HALTE;REGION NORD PAS DE CALAIS;Nord;50.1918249;3.2754949
87345421;Arleux;ARLEUX HALTE;REGION NORD PAS DE CALAIS;Nord;50.2863204;3.1208073
87345405;Sin-le-Noble;SIN LE NOBLE GARE;REGION NORD PAS DE CALAIS;Nord;50.356612;3.112777
87345389;Bouchain;BOUCHAIN P GARE;REGION NORD PAS DE CALAIS;Nord;50.2780892;3.3319096
87345306;Montigny-en-Ostrevent;MONTIGNY EN OSTREVENT GARE;REGION NORD PAS DE CALAIS;Nord;50.36151;3.18829
87345280;Bauvin - Provin;BAUVIN PROVIN HALTE;REGION NORD PAS DE CALAIS;Nord;50.51168;2.90540
87345264;Pont-à-Vendin;PONT A VENDIN P GARE;REGION NORD PAS DE CALAIS;Pas-de-Calais;50.4713812;2.8751938
87345249;Ostricourt;OSTRICOURT HALTE;REGION NORD PAS DE CALAIS;Nord;50.44542;3.03244
87345207;Pont de la Deûle;PONT DE LA DEULE P GARE;REGION NORD PAS DE CALAIS;Nord;50.39813;3.08503
87345140;Billy-Montigny;BILLY MONTIGNY GARE;REGION NORD PAS DE CALAIS;Pas-de-Calais;50.41556;2.91206
87345033;Loos-en-Gohelle;LOOS EN GOHELLE HALTE;REGION NORD PAS DE CALAIS;Pas-de-Calais;50.4378798;2.7933955
87343459;Denain;DENAIN GARE;REGION NORD PAS DE CALAIS;Nord;50.3345415;3.388699
87342527;Farbus;FARBUS HALTE;REGION NORD PAS DE CALAIS;Pas-de-Calais;50.357641;2.8310408
87342402;Beuvry lès Béthune;BEUVRY (PAS DE CALAIS) GARE;REGION NORD PAS DE CALAIS;Pas-de-Calais;50.5356021;2.6924093
87342303;Tincques;TINCQUES HALTE;REGION NORD PAS DE CALAIS;Pas-de-Calais;50.35699;2.4980285
87342279;Isbergues;ISBERGUES GARE;REGION NORD PAS DE CALAIS;Pas-de-Calais;50.61399;2.46277
87342253;Savy-Berlette;SAVY BERLETTE HALTE;REGION NORD PAS DE CALAIS;Pas-de-Calais;50.3538756;2.5577316
87342204;Fouquereuil;FOUQUEREUIL P GARE;REGION NORD PAS DE CALAIS;Pas-de-Calais;50.5255091;2.6074449
87342139;Nœux-les-Mines;NOEUX LES MINES GARE;REGION NORD PAS DE CALAIS;Pas-de-Calais;50.48297;2.67393
87342121;Mazingarbe;MAZINGARBE HALTE;REGION NORD PAS DE CALAIS;Pas-de-Calais;50.4608957;2.7005447
87342097;Biache-Saint-Vaast;BIACHE ST VAAST GARE;REGION NORD PAS DE CALAIS;Pas-de-Calais;50.3162525;2.9414975
87342030;Miraumont;MIRAUMONT GARE;REGION PICARDIE;Somme;50.0958521;2.7344755
87338590;Monte-Carlo Country Club;;REGION PROVENCE ALPES COTE D'AZUR;Alpes-Maritimes;43.7543539;7.4482077
87337378;Dives-sur-Mer Port Guillaume;DIVES CABOURG GARE;REGION NORMANDIE;Calvados;49.2910882;-0.1008455
87323675;Montluçon Rimard;MONTLUCON CHANTIER RIMARD;REGION AUVERGNE;Allier;46.3355913;2.6115119
87317586;Boulogne-sur-Mer;BOULOGNE VILLE GARE;REGION NORD PAS DE CALAIS;Pas-de-Calais;50.71570;1.60964
87317511;Woincourt;;;Somme;50.05867;1.537044
87317321;Caffiers;CAFFIERS GARE;REGION NORD PAS DE CALAIS;Pas-de-Calais;50.8500679;1.8120345
87317263;Calais;CALAIS VILLE GARE;REGION NORD PAS DE CALAIS;Pas-de-Calais;50.953481;1.850819
